FID,longitude,latitude,data_hora_gmt,satelite,municipio,estado,pais,geom
focos_ams_ontem_hoje_ref.b4a8d13d-bf4d-39c6-84bc-11c4bf8321c1,-80.475,-0.741,2021-07-08T19:10:00,AQUA_M-T,Sucre,Manabi,Ecuador,POINT (-0.741 -80.475)
focos_ams_ontem_hoje_ref.08458be9-baa0-339c-99b5-7dadc04e9800,-74.262,1.183,2021-07-08T19:10:00,AQUA_M-T,San Vicente del Caguán,Caquetá,Colombia,POINT (1.183 -74.262)
focos_ams_ontem_hoje_ref.2ebe0b3d-1224-327c-8eee-dc3c6273fe7b,-80.501,-3.575,2021-07-08T19:05:00,AQUA_M-T,Tumbes,Tumbes,Peru,POINT (-3.575 -80.501)
focos_ams_ontem_hoje_ref.ae7ad186-1868-3505-b7ff-072b92541e1d,-80.46,-3.559,2021-07-08T19:05:00,AQUA_M-T,Tumbes,Tumbes,Peru,POINT (-3.559 -80.46)
focos_ams_ontem_hoje_ref.60d9f15b-16f6-3743-b936-f3afe30505e0,-80.539,-3.611,2021-07-08T19:05:00,AQUA_M-T,Tumbes,Tumbes,Peru,POINT (-3.611 -80.539)
focos_ams_ontem_hoje_ref.66009c5f-8907-3fd0-8d30-acaea442655c,-80.331,-3.508,2021-07-08T19:05:00,AQUA_M-T,Zarumilla,Tumbes,Peru,POINT (-3.508 -80.331)
focos_ams_ontem_hoje_ref.39a6bdfe-52bd-31d0-b00c-ef21cf6d330e,-79.846,-6.738,2021-07-08T19:05:00,AQUA_M-T,Chiclayo,Lambayeque,Peru,POINT (-6.738 -79.846)
focos_ams_ontem_hoje_ref.c801106e-fc91-36ba-a0cf-b5cdbad7de8c,-74.95,-14.166,2021-07-08T19:05:00,AQUA_M-T,Lucanas,Ayacucho,Peru,POINT (-14.166 -74.95)
focos_ams_ontem_hoje_ref.f14b4c06-dd92-3937-b322-01ec3e5e6f99,-75.24,-9.894,2021-07-08T19:05:00,AQUA_M-T,Oxapampa,Pasco,Peru,POINT (-9.894 -75.24)
focos_ams_ontem_hoje_ref.5c534ddc-7895-352b-aeed-857df5f9130b,-76.207,-8.779,2021-07-08T19:05:00,AQUA_M-T,Leoncio Prado,Huánuco,Peru,POINT (-8.779 -76.207)
focos_ams_ontem_hoje_ref.de666ab8-dc0f-38b5-a489-ea69c99f2fe4,-76.596,-7.366,2021-07-08T19:05:00,AQUA_M-T,Mariscal Cáceres,San Martín,Peru,POINT (-7.366 -76.596)
focos_ams_ontem_hoje_ref.0df8edce-5b07-388c-ad1c-936d76684f27,-76.051,-7.282,2021-07-08T19:05:00,AQUA_M-T,Ucayali,Loreto,Peru,POINT (-7.282 -76.051)
focos_ams_ontem_hoje_ref.a97ee09c-7a6f-3009-aab1-3666236118dd,-74.001,-11.789,2021-07-08T19:05:00,AQUA_M-T,Satipo,Junín,Peru,POINT (-11.789 -74.001)
focos_ams_ontem_hoje_ref.f5d1c048-f296-331c-b02d-0fa7ab9bf1c7,-79.886,-6.652,2021-07-08T19:05:00,AQUA_M-T,Lambayeque,Lambayeque,Peru,POINT (-6.652 -79.886)
focos_ams_ontem_hoje_ref.c5e4085d-dfaa-3f25-b402-9e331c36f1ee,-79.881,-6.612,2021-07-08T19:05:00,AQUA_M-T,Lambayeque,Lambayeque,Peru,POINT (-6.612 -79.881)
focos_ams_ontem_hoje_ref.1e37112c-1181-3a67-a71b-b3c006cca8ad,-76.043,-7.282,2021-07-08T19:05:00,AQUA_M-T,Ucayali,Loreto,Peru,POINT (-7.282 -76.043)
focos_ams_ontem_hoje_ref.86b226e9-7223-328b-b3c4-837904cd6f08,-80.731,-5.337,2021-07-08T19:05:00,AQUA_M-T,Piura,Piura,Peru,POINT (-5.337 -80.731)
focos_ams_ontem_hoje_ref.c3fb3f86-08e6-33cd-ae8d-e490302545a7,-74.313,-10.746,2021-07-08T19:05:00,AQUA_M-T,Atalaya,Ucayali,Peru,POINT (-10.746 -74.313)
focos_ams_ontem_hoje_ref.8ebf1baa-a8da-34eb-9d75-ca19105e4b6d,-80.544,-4.767,2021-07-08T19:05:00,AQUA_M-T,Sullana,Piura,Peru,POINT (-4.767 -80.544)
focos_ams_ontem_hoje_ref.d538dfba-419c-3bed-a18e-6bf4ac70e8f8,-79.907,-4.398,2021-07-08T19:05:00,AQUA_M-T,Ayabaca,Piura,Peru,POINT (-4.398 -79.907)
focos_ams_ontem_hoje_ref.630aee81-ad26-3fe8-8fb8-c4ebca19c85f,-73.844,-10.067,2021-07-08T19:05:00,AQUA_M-T,Atalaya,Ucayali,Peru,POINT (-10.067 -73.844)
focos_ams_ontem_hoje_ref.3db6bd82-b926-37e1-a721-74466649e93a,-74.962,-14.171,2021-07-08T19:05:00,AQUA_M-T,Lucanas,Ayacucho,Peru,POINT (-14.171 -74.962)
focos_ams_ontem_hoje_ref.8562484f-9271-37ff-92ca-7af25729621c,-76.36,-7.163,2021-07-08T19:05:00,AQUA_M-T,Bellavista,San Martín,Peru,POINT (-7.163 -76.36)
focos_ams_ontem_hoje_ref.f21ad402-a997-3dc9-8457-7c1a290c5624,-74.945,-14.169,2021-07-08T19:05:00,AQUA_M-T,Lucanas,Ayacucho,Peru,POINT (-14.169 -74.945)
focos_ams_ontem_hoje_ref.90bcd439-73e3-3c5a-9e96-f2b3842acdee,-79.621,-6.797,2021-07-08T19:05:00,AQUA_M-T,Chiclayo,Lambayeque,Peru,POINT (-6.797 -79.621)
focos_ams_ontem_hoje_ref.d0a60e62-58fb-304b-b3e9-d6e74319d4ed,-80.374,-3.547,2021-07-08T19:05:00,AQUA_M-T,Tumbes,Tumbes,Peru,POINT (-3.547 -80.374)
focos_ams_ontem_hoje_ref.b3f9ef39-0298-3c19-aeff-cfdc31ca5fb0,-75.247,-9.895,2021-07-08T19:05:00,AQUA_M-T,Oxapampa,Pasco,Peru,POINT (-9.895 -75.247)
focos_ams_ontem_hoje_ref.4ad6eaec-b193-3274-8b13-f7f8c0e1d972,-71.839,-34.63,2021-07-08T19:00:00,AQUA_M-T,Colchagua,Libertador General Bernardo O'Higgins,Chile,POINT (-34.63 -71.839)
focos_ams_ontem_hoje_ref.9869fa4c-ad8a-39df-adeb-f24f0f935b73,-68.033,-37.648,2021-07-08T19:00:00,AQUA_M-T,General Roca,Río Negro,Argentina,POINT (-37.648 -68.033)
focos_ams_ontem_hoje_ref.c8ff5c24-4085-38a0-9680-57ebf2f8865c,-69.047,-34.015,2021-07-08T19:00:00,AQUA_M-T,San Carlos,Mendoza,Argentina,POINT (-34.015 -69.047)
focos_ams_ontem_hoje_ref.c8c02f47-a812-366f-a97d-22de873a0eea,-71.842,-34.62,2021-07-08T19:00:00,AQUA_M-T,Colchagua,Libertador General Bernardo O'Higgins,Chile,POINT (-34.62 -71.842)
focos_ams_ontem_hoje_ref.5869a66b-3b51-3296-9576-f212fa2cc7f2,-71.416,-34.438,2021-07-08T19:00:00,AQUA_M-T,Cachapoal,Libertador General Bernardo O'Higgins,Chile,POINT (-34.438 -71.416)
focos_ams_ontem_hoje_ref.de89e3af-ed8d-30d7-9644-2a8c86776af8,-65.44,-27.436,2021-07-08T19:00:00,AQUA_M-T,Simoca,Tucumán,Argentina,POINT (-27.436 -65.44)
focos_ams_ontem_hoje_ref.bbb19dee-6e26-37a8-a9d9-2bebd29cf428,-70.563,10.436,2021-07-08T17:35:00,AQUA_M-T,Dabajuro,Falcón,Venezuela,POINT (10.436 -70.563)
focos_ams_ontem_hoje_ref.c7e1d43a-64fd-3248-b137-eb9d4a1c7ace,-47.876,-4.479,2021-07-08T17:30:00,AQUA_M-T,DOM ELISEU,PARÁ,Brasil,POINT (-4.479 -47.876)
focos_ams_ontem_hoje_ref.32822593-f1ab-3dd1-9b7c-f27589319c5e,-60.142,5.495,2021-07-08T17:30:00,AQUA_M-T,Karambaru to Kukui River + Phillipi,Cuyuni-Mazaruni,Guyana,POINT (5.495 -60.142)
focos_ams_ontem_hoje_ref.3a0614e7-5d35-3326-9e17-cd807f059f12,-59.621,3.747,2021-07-08T17:30:00,AQUA_M-T,Toka - Jakaretinga,Upper Takutu-Upper Essequibo,Guyana,POINT (3.747 -59.621)
focos_ams_ontem_hoje_ref.fa783168-17cd-37a2-bf81-c860b5f98853,-63.454,6.91,2021-07-08T17:30:00,AQUA_M-T,Angostura,Bolívar,Venezuela,POINT (6.91 -63.454)
focos_ams_ontem_hoje_ref.103b640e-4a2d-30b6-9575-ae7531bef580,-56.487,-2.1,2021-07-08T17:30:00,AQUA_M-T,TERRA SANTA,PARÁ,Brasil,POINT (-2.1 -56.487)
focos_ams_ontem_hoje_ref.62dbdb4b-5e43-354d-b234-44cd2df6cc5b,-55.137,-6.483,2021-07-08T17:30:00,AQUA_M-T,ALTAMIRA,PARÁ,Brasil,POINT (-6.483 -55.137)
focos_ams_ontem_hoje_ref.40e2b332-7b41-346e-a8fc-b82326d2b2da,-63.328,-5.82,2021-07-08T17:30:00,AQUA_M-T,TAPAUÁ,AMAZONAS,Brasil,POINT (-5.82 -63.328)
focos_ams_ontem_hoje_ref.fcf4fbad-980e-3f1b-8667-81f7791b6024,-67.187,7.656,2021-07-08T17:30:00,AQUA_M-T,San Fernando,Apure,Venezuela,POINT (7.656 -67.187)
focos_ams_ontem_hoje_ref.708cebaf-9bec-3ee9-8c94-d9fcf48cb087,-55.148,-6.823,2021-07-08T17:30:00,AQUA_M-T,ALTAMIRA,PARÁ,Brasil,POINT (-6.823 -55.148)
focos_ams_ontem_hoje_ref.208e2398-26ca-34ce-b62e-e474c761b77f,-61.6,5.652,2021-07-08T17:30:00,AQUA_M-T,Gran Sabana,Bolívar,Venezuela,POINT (5.652 -61.6)
focos_ams_ontem_hoje_ref.b5f0e6c1-4176-35a9-8da3-6aa3b507bbe5,-55.15,-6.813,2021-07-08T17:30:00,AQUA_M-T,ALTAMIRA,PARÁ,Brasil,POINT (-6.813 -55.15)
focos_ams_ontem_hoje_ref.c19d3018-2ea7-3a27-9315-7f78b2d54ee8,-63.089,6.106,2021-07-08T17:30:00,AQUA_M-T,Angostura,Bolívar,Venezuela,POINT (6.106 -63.089)
focos_ams_ontem_hoje_ref.c3a890bb-d8e6-3b48-ba62-f8cae5fe0499,-63.465,6.909,2021-07-08T17:30:00,AQUA_M-T,Angostura,Bolívar,Venezuela,POINT (6.909 -63.465)
focos_ams_ontem_hoje_ref.724156a7-ee42-3d6b-9f39-137ebf87c4b7,-56.609,-24.961,2021-07-08T17:25:00,AQUA_M-T,Unión,San Pedro,Paraguay,POINT (-24.961 -56.609)
focos_ams_ontem_hoje_ref.62054ea1-3d15-317c-a90c-5c1e6e3f2c6f,-50.405,-12.333,2021-07-08T17:25:00,AQUA_M-T,FORMOSO DO ARAGUAIA,TOCANTINS,Brasil,POINT (-12.333 -50.405)
focos_ams_ontem_hoje_ref.3131434d-4768-38f8-b2c2-a565a7daa3ff,-56.113,-24.98,2021-07-08T17:25:00,AQUA_M-T,Simón Bolívar,Caaguazú,Paraguay,POINT (-24.98 -56.113)
focos_ams_ontem_hoje_ref.6b032859-d6df-31f6-b689-82ce5dee45d8,-50.305,-12.355,2021-07-08T17:25:00,AQUA_M-T,FORMOSO DO ARAGUAIA,TOCANTINS,Brasil,POINT (-12.355 -50.305)
focos_ams_ontem_hoje_ref.78fa5b0f-8730-302f-9602-3a16996a059b,-59.26,-12.321,2021-07-08T17:25:00,AQUA_M-T,COMODORO,MATO GROSSO,Brasil,POINT (-12.321 -59.26)
focos_ams_ontem_hoje_ref.51aebb77-c61b-3efd-95af-443acc3134b3,-45.674,-11.952,2021-07-08T17:25:00,AQUA_M-T,LUÍS EDUARDO MAGALHÃES,BAHIA,Brasil,POINT (-11.952 -45.674)
focos_ams_ontem_hoje_ref.a230de01-aa2a-399b-a1b9-5f91f24f4ff6,-59.347,-12.262,2021-07-08T17:25:00,AQUA_M-T,JUÍNA,MATO GROSSO,Brasil,POINT (-12.262 -59.347)
focos_ams_ontem_hoje_ref.cea93e9d-cd89-31e1-a7a5-19f60f6d38a7,-47.484,-12.253,2021-07-08T17:25:00,AQUA_M-T,CONCEIÇÃO DO TOCANTINS,TOCANTINS,Brasil,POINT (-12.253 -47.484)
focos_ams_ontem_hoje_ref.b1b49d09-e6b2-3789-b1a2-1ef29f1ec80d,-47.487,-12.237,2021-07-08T17:25:00,AQUA_M-T,CONCEIÇÃO DO TOCANTINS,TOCANTINS,Brasil,POINT (-12.237 -47.487)
focos_ams_ontem_hoje_ref.ec4c8feb-de61-3a13-a60e-47e1a6072c9c,-45.631,-11.944,2021-07-08T17:25:00,AQUA_M-T,BARREIRAS,BAHIA,Brasil,POINT (-11.944 -45.631)
focos_ams_ontem_hoje_ref.6934af7f-8344-33fe-87e8-566fd88ca233,-47.494,-12.242,2021-07-08T17:25:00,AQUA_M-T,CONCEIÇÃO DO TOCANTINS,TOCANTINS,Brasil,POINT (-12.242 -47.494)
focos_ams_ontem_hoje_ref.cb901629-f073-3c04-94f3-a4fe6df15a9b,-45.666,-11.951,2021-07-08T17:25:00,AQUA_M-T,LUÍS EDUARDO MAGALHÃES,BAHIA,Brasil,POINT (-11.951 -45.666)
focos_ams_ontem_hoje_ref.18cd4f21-3875-3ee3-bb46-ac8e248648f7,-55.719,-24.983,2021-07-08T17:25:00,AQUA_M-T,Yhú,Caaguazú,Paraguay,POINT (-24.983 -55.719)
focos_ams_ontem_hoje_ref.6cdd2046-6b71-339b-a020-0696a2caa0f5,-58.777,-12.163,2021-07-08T17:25:00,AQUA_M-T,SAPEZAL,MATO GROSSO,Brasil,POINT (-12.163 -58.777)
focos_ams_ontem_hoje_ref.a8354e1f-f9aa-3fa2-9323-edb079e48be9,-55.462,-25.007,2021-07-08T17:25:00,AQUA_M-T,Mariscal Francisco Solano López,Caaguazú,Paraguay,POINT (-25.007 -55.462)
focos_ams_ontem_hoje_ref.2b9c7381-6d0e-3da3-971b-e237dbfa2f5f,-56.814,-24.997,2021-07-08T17:25:00,AQUA_M-T,Juan de Mena,Cordillera,Paraguay,POINT (-24.997 -56.814)
focos_ams_ontem_hoje_ref.e745aeca-8520-3fe0-b937-294235a16f1d,-55.854,-25.091,2021-07-08T17:25:00,AQUA_M-T,Yhú,Caaguazú,Paraguay,POINT (-25.091 -55.854)
focos_ams_ontem_hoje_ref.87a03403-f851-34ad-b554-ef9d1e7bfb8f,-56.111,-25.101,2021-07-08T17:25:00,AQUA_M-T,San Joaquín,Caaguazú,Paraguay,POINT (-25.101 -56.111)
focos_ams_ontem_hoje_ref.4b180ccc-5742-319a-9ff1-a2933c3b2519,-56.43,-25.102,2021-07-08T17:25:00,AQUA_M-T,Carayaó,Caaguazú,Paraguay,POINT (-25.102 -56.43)
focos_ams_ontem_hoje_ref.379a614a-71e9-316e-89fc-a1cf028aeccd,-56.462,-25.177,2021-07-08T17:25:00,AQUA_M-T,Carayaó,Caaguazú,Paraguay,POINT (-25.177 -56.462)
focos_ams_ontem_hoje_ref.6139e734-e764-3e99-aa43-aa8ef6e47076,-56.093,-25.18,2021-07-08T17:25:00,AQUA_M-T,Carayaó,Caaguazú,Paraguay,POINT (-25.18 -56.093)
focos_ams_ontem_hoje_ref.0a8ad264-d17e-3d04-8879-85c0cc41f1b1,-55.631,-25.184,2021-07-08T17:25:00,AQUA_M-T,Raúl Arsenio Oviedo,Caaguazú,Paraguay,POINT (-25.184 -55.631)
focos_ams_ontem_hoje_ref.ea98ad1f-a17c-391e-973c-787af6b27594,-63.987,-25.365,2021-07-08T17:25:00,AQUA_M-T,Anta,Salta,Argentina,POINT (-25.365 -63.987)
focos_ams_ontem_hoje_ref.cfedfc4b-edbe-3ade-948d-87f689527d89,-57.749,-25.339,2021-07-08T17:25:00,AQUA_M-T,Pilcomayo,Formosa,Argentina,POINT (-25.339 -57.749)
focos_ams_ontem_hoje_ref.b98ad889-8fb5-3d7c-9da0-a8f6a8599c70,-56.388,-25.34,2021-07-08T17:25:00,AQUA_M-T,Coronel Oviedo,Caaguazú,Paraguay,POINT (-25.34 -56.388)
focos_ams_ontem_hoje_ref.5f22fbfd-b8af-3501-a678-3877c6555193,-63.99,-25.377,2021-07-08T17:25:00,AQUA_M-T,Anta,Salta,Argentina,POINT (-25.377 -63.99)
focos_ams_ontem_hoje_ref.5f9d919c-4776-3c19-9fff-5bbfdc0933c4,-55.336,-25.4,2021-07-08T17:25:00,AQUA_M-T,Juan Emilio O'Leary,Alto Paraná,Paraguay,POINT (-25.4 -55.336)
focos_ams_ontem_hoje_ref.194fc469-2ec8-36e6-bbb4-18235474d2e5,-55.347,-25.402,2021-07-08T17:25:00,AQUA_M-T,Juan Emilio O'Leary,Alto Paraná,Paraguay,POINT (-25.402 -55.347)
focos_ams_ontem_hoje_ref.be8f7b78-6984-3d48-9503-cb64bc83a638,-55.284,-25.451,2021-07-08T17:25:00,AQUA_M-T,Doctor Juan León Mallorquín,Alto Paraná,Paraguay,POINT (-25.451 -55.284)
focos_ams_ontem_hoje_ref.549c9eef-91cf-3632-a1be-1293ef755566,-56.228,-25.482,2021-07-08T17:25:00,AQUA_M-T,Caaguazú,Caaguazú,Paraguay,POINT (-25.482 -56.228)
focos_ams_ontem_hoje_ref.bfcee730-df49-3fa3-ab86-77c58ecc95f7,-58.134,-25.497,2021-07-08T17:25:00,AQUA_M-T,Pilcomayo,Formosa,Argentina,POINT (-25.497 -58.134)
focos_ams_ontem_hoje_ref.c6cae094-20c2-31e5-a9f5-c17a61ed6084,-58.119,-25.495,2021-07-08T17:25:00,AQUA_M-T,Pilcomayo,Formosa,Argentina,POINT (-25.495 -58.119)
focos_ams_ontem_hoje_ref.e8a7aaae-b735-3aad-9f69-be6311461279,-56.957,-25.501,2021-07-08T17:25:00,AQUA_M-T,Piribebuy,Cordillera,Paraguay,POINT (-25.501 -56.957)
focos_ams_ontem_hoje_ref.97955162-8cd7-36f8-8d5e-36cba2ea558a,-56.97,-25.502,2021-07-08T17:25:00,AQUA_M-T,Piribebuy,Cordillera,Paraguay,POINT (-25.502 -56.97)
focos_ams_ontem_hoje_ref.d933f4bc-af7f-3273-a6de-fb58868852d8,-55.364,-25.525,2021-07-08T17:25:00,AQUA_M-T,Juan Emilio O'Leary,Alto Paraná,Paraguay,POINT (-25.525 -55.364)
focos_ams_ontem_hoje_ref.d0332b55-92e4-3ac7-bcdb-0851874507de,-56.085,-25.525,2021-07-08T17:25:00,AQUA_M-T,Caaguazú,Caaguazú,Paraguay,POINT (-25.525 -56.085)
focos_ams_ontem_hoje_ref.88511179-0c5c-3bd6-8208-2ac837785448,-56.097,-25.527,2021-07-08T17:25:00,AQUA_M-T,Caaguazú,Caaguazú,Paraguay,POINT (-25.527 -56.097)
focos_ams_ontem_hoje_ref.0a87d230-0af2-36d9-93ca-d2ec57b0ebfd,-58.057,-25.579,2021-07-08T17:25:00,AQUA_M-T,Pilcomayo,Formosa,Argentina,POINT (-25.579 -58.057)
focos_ams_ontem_hoje_ref.6f11d57d-0ea0-324f-ae86-fb2c62736467,-57.661,-25.577,2021-07-08T17:25:00,AQUA_M-T,Pilcomayo,Formosa,Argentina,POINT (-25.577 -57.661)
focos_ams_ontem_hoje_ref.e4e49035-cede-3be3-8cb6-5e0362704887,-62.905,-12.119,2021-07-08T17:25:00,AQUA_M-T,SÃO MIGUEL DO GUAPORÉ,RONDÔNIA,Brasil,POINT (-12.119 -62.905)
focos_ams_ontem_hoje_ref.8f78693c-7023-350b-aa1b-3430fc65a0a4,-57.653,-25.581,2021-07-08T17:25:00,AQUA_M-T,Pilcomayo,Formosa,Argentina,POINT (-25.581 -57.653)
focos_ams_ontem_hoje_ref.b8ee8bd0-650d-3dce-a093-c24c3bba99eb,-57.667,-25.583,2021-07-08T17:25:00,AQUA_M-T,Pilcomayo,Formosa,Argentina,POINT (-25.583 -57.667)
focos_ams_ontem_hoje_ref.c2179bd5-c33c-368a-8160-4b301119fff7,-51.556,-11.798,2021-07-08T17:25:00,AQUA_M-T,ALTO BOA VISTA,MATO GROSSO,Brasil,POINT (-11.798 -51.556)
focos_ams_ontem_hoje_ref.3e845c01-32dd-3229-9bbd-9842014d1f4b,-56.631,-25.603,2021-07-08T17:25:00,AQUA_M-T,San José de los Arroyos,Caaguazú,Paraguay,POINT (-25.603 -56.631)
focos_ams_ontem_hoje_ref.e8040e0e-9217-396b-9838-16616b847886,-58.37,-12.006,2021-07-08T17:25:00,AQUA_M-T,BRASNORTE,MATO GROSSO,Brasil,POINT (-12.006 -58.37)
focos_ams_ontem_hoje_ref.ca83641e-5882-3c49-a046-53867ba34982,-57.707,-25.609,2021-07-08T17:25:00,AQUA_M-T,Pilcomayo,Formosa,Argentina,POINT (-25.609 -57.707)
focos_ams_ontem_hoje_ref.e3821b2f-7e03-3db3-824b-b789a3307d18,-59.633,-25.671,2021-07-08T17:25:00,AQUA_M-T,Pirané,Formosa,Argentina,POINT (-25.671 -59.633)
focos_ams_ontem_hoje_ref.be4f2d49-574d-3e64-b913-a96723114733,-54.244,-11.391,2021-07-08T17:25:00,AQUA_M-T,UNIÃO DO SUL,MATO GROSSO,Brasil,POINT (-11.391 -54.244)
focos_ams_ontem_hoje_ref.f99e7c34-1515-3c4b-b343-a2aa0f2a170c,-57.712,-25.674,2021-07-08T17:25:00,AQUA_M-T,Villeta,Central,Paraguay,POINT (-25.674 -57.712)
focos_ams_ontem_hoje_ref.1afa60b0-6a89-3015-a8af-93b63a0d22dc,-50.567,-11.585,2021-07-08T17:25:00,AQUA_M-T,FORMOSO DO ARAGUAIA,TOCANTINS,Brasil,POINT (-11.585 -50.567)
focos_ams_ontem_hoje_ref.c44de35c-5ea1-3930-8e12-24c14a123431,-57.726,-25.676,2021-07-08T17:25:00,AQUA_M-T,Villeta,Central,Paraguay,POINT (-25.676 -57.726)
focos_ams_ontem_hoje_ref.936acc31-3070-3119-90a6-ebfef18b2d57,-57.72,-25.679,2021-07-08T17:25:00,AQUA_M-T,Villeta,Central,Paraguay,POINT (-25.679 -57.72)
focos_ams_ontem_hoje_ref.8e7811a9-ed69-3377-92d7-e09763b1bb28,-59.768,-25.685,2021-07-08T17:25:00,AQUA_M-T,Patiño,Formosa,Argentina,POINT (-25.685 -59.768)
focos_ams_ontem_hoje_ref.1f707ace-bdaf-35f4-9250-ba1f4cf9c598,-51.158,-11.354,2021-07-08T17:25:00,AQUA_M-T,SÃO FÉLIX DO ARAGUAIA,MATO GROSSO,Brasil,POINT (-11.354 -51.158)
focos_ams_ontem_hoje_ref.e038fe98-afff-3b6c-b0f8-9edf85dc24e0,-47.33,-11.308,2021-07-08T17:25:00,AQUA_M-T,ALMAS,TOCANTINS,Brasil,POINT (-11.308 -47.33)
focos_ams_ontem_hoje_ref.3a33126d-250b-37ff-85d5-183bef671151,-57.839,-25.769,2021-07-08T17:25:00,AQUA_M-T,Formosa,Formosa,Argentina,POINT (-25.769 -57.839)
focos_ams_ontem_hoje_ref.1166a68a-5db9-3c94-a186-995ed77dc43d,-59.746,-25.892,2021-07-08T17:25:00,AQUA_M-T,Patiño,Formosa,Argentina,POINT (-25.892 -59.746)
focos_ams_ontem_hoje_ref.2334082a-a5b4-3966-9e6b-2d1aad396dba,-59.765,-25.894,2021-07-08T17:25:00,AQUA_M-T,Patiño,Formosa,Argentina,POINT (-25.894 -59.765)
focos_ams_ontem_hoje_ref.72f0401e-aec5-3c94-b2ba-88eefa17dd9e,-61.336,-25.9,2021-07-08T17:25:00,AQUA_M-T,Almirante Brown,Chaco,Argentina,POINT (-25.9 -61.336)
focos_ams_ontem_hoje_ref.53431696-0fd4-369f-a6c3-585a3e72eb34,-59.75,-25.902,2021-07-08T17:25:00,AQUA_M-T,Patiño,Formosa,Argentina,POINT (-25.902 -59.75)
focos_ams_ontem_hoje_ref.42844745-0b94-3a2e-a183-3700ab10b342,-61.361,-25.902,2021-07-08T17:25:00,AQUA_M-T,Almirante Brown,Chaco,Argentina,POINT (-25.902 -61.361)
focos_ams_ontem_hoje_ref.eed5a4e9-e159-3d07-9196-9f35ae86aeab,-61.36,-25.916,2021-07-08T17:25:00,AQUA_M-T,Almirante Brown,Chaco,Argentina,POINT (-25.916 -61.36)
focos_ams_ontem_hoje_ref.f46703bf-ba3d-3112-a1fa-1605c2c76fdd,-59.769,-25.904,2021-07-08T17:25:00,AQUA_M-T,Patiño,Formosa,Argentina,POINT (-25.904 -59.769)
focos_ams_ontem_hoje_ref.7d8417b4-c54b-3d16-8aff-a674155e3c09,-55.916,-22.554,2021-07-08T17:25:00,AQUA_M-T,Pedro Juan Caballero,Amambay,Paraguay,POINT (-22.554 -55.916)
focos_ams_ontem_hoje_ref.22825cbf-52c5-37dc-9bca-a9ab260cbe39,-57.252,-18.847,2021-07-08T17:25:00,AQUA_M-T,CORUMBÁ,MATO GROSSO DO SUL,Brasil,POINT (-18.847 -57.252)
focos_ams_ontem_hoje_ref.cf26aeb9-f273-3f9c-8691-a243a1723418,-57.328,-18.848,2021-07-08T17:25:00,AQUA_M-T,CORUMBÁ,MATO GROSSO DO SUL,Brasil,POINT (-18.848 -57.328)
focos_ams_ontem_hoje_ref.44b698ac-27a0-3181-afe1-10ef1e9fadd3,-57.349,-18.851,2021-07-08T17:25:00,AQUA_M-T,CORUMBÁ,MATO GROSSO DO SUL,Brasil,POINT (-18.851 -57.349)
focos_ams_ontem_hoje_ref.4d5e64b6-ba0e-3132-bcce-3a1ecbaaa5e8,-57.246,-18.85,2021-07-08T17:25:00,AQUA_M-T,CORUMBÁ,MATO GROSSO DO SUL,Brasil,POINT (-18.85 -57.246)
focos_ams_ontem_hoje_ref.0e781c2f-bdde-3625-8686-d937c6e53467,-57.256,-18.852,2021-07-08T17:25:00,AQUA_M-T,CORUMBÁ,MATO GROSSO DO SUL,Brasil,POINT (-18.852 -57.256)
focos_ams_ontem_hoje_ref.2e0ffc06-57dc-3f11-895b-004b273d8977,-57.255,-18.861,2021-07-08T17:25:00,AQUA_M-T,CORUMBÁ,MATO GROSSO DO SUL,Brasil,POINT (-18.861 -57.255)
focos_ams_ontem_hoje_ref.724403eb-672e-3cea-9c1d-8e04a64145f0,-57.331,-18.861,2021-07-08T17:25:00,AQUA_M-T,CORUMBÁ,MATO GROSSO DO SUL,Brasil,POINT (-18.861 -57.331)
focos_ams_ontem_hoje_ref.8b5f82c6-f70b-3f98-97f0-9dde8b0ac897,-57.287,-18.865,2021-07-08T17:25:00,AQUA_M-T,CORUMBÁ,MATO GROSSO DO SUL,Brasil,POINT (-18.865 -57.287)
focos_ams_ontem_hoje_ref.7a4f0653-470e-3bde-b104-a652dfb0f3e5,-57.286,-18.875,2021-07-08T17:25:00,AQUA_M-T,CORUMBÁ,MATO GROSSO DO SUL,Brasil,POINT (-18.875 -57.286)
focos_ams_ontem_hoje_ref.ad19a7c3-af6d-3c19-a789-3275b96d8565,-57.296,-18.876,2021-07-08T17:25:00,AQUA_M-T,CORUMBÁ,MATO GROSSO DO SUL,Brasil,POINT (-18.876 -57.296)
focos_ams_ontem_hoje_ref.8c4404b5-cc9e-311d-97ae-a2d1fbfcd9f0,-63.678,-13.772,2021-07-08T17:25:00,AQUA_M-T,Vaca Díez,El Beni,Bolivia,POINT (-13.772 -63.678)
focos_ams_ontem_hoje_ref.3874a9c0-f5e1-35be-85a9-639c212a3b8a,-57.912,-21.202,2021-07-08T17:25:00,AQUA_M-T,La Victoria,Alto Paraguay,Paraguay,POINT (-21.202 -57.912)
focos_ams_ontem_hoje_ref.6435d3b6-8915-3911-ae3d-097c11e0b5ff,-60.703,-21.284,2021-07-08T17:25:00,AQUA_M-T,General Eugenio A. Garay,Boquerón,Paraguay,POINT (-21.284 -60.703)
focos_ams_ontem_hoje_ref.6b043c43-bef4-3a84-b57d-7e98abb80d2b,-57.907,-21.698,2021-07-08T17:25:00,AQUA_M-T,La Victoria,Alto Paraguay,Paraguay,POINT (-21.698 -57.907)
focos_ams_ontem_hoje_ref.2c8099b5-1cdd-3cf8-9948-2057bf1ab138,-60.698,-21.285,2021-07-08T17:25:00,AQUA_M-T,General Eugenio A. Garay,Boquerón,Paraguay,POINT (-21.285 -60.698)
focos_ams_ontem_hoje_ref.8bbf4c56-e7af-3519-b679-c4e0243f0b0d,-60.78,-21.708,2021-07-08T17:25:00,AQUA_M-T,General Eugenio A. Garay,Boquerón,Paraguay,POINT (-21.708 -60.78)
focos_ams_ontem_hoje_ref.2613a570-63c8-38ad-b69a-400e9dea96fe,-60.8,-21.71,2021-07-08T17:25:00,AQUA_M-T,General Eugenio A. Garay,Boquerón,Paraguay,POINT (-21.71 -60.8)
focos_ams_ontem_hoje_ref.29dbfb92-bc7d-333e-8368-a5106865cbbf,-62.168,-21.777,2021-07-08T17:25:00,AQUA_M-T,Doctor Pedro P. Peña,Boquerón,Paraguay,POINT (-21.777 -62.168)
focos_ams_ontem_hoje_ref.7253224e-c565-3b28-87b9-bd01aaebfe4c,-62.193,-21.779,2021-07-08T17:25:00,AQUA_M-T,Doctor Pedro P. Peña,Boquerón,Paraguay,POINT (-21.779 -62.193)
focos_ams_ontem_hoje_ref.a3bad79f-8ab1-3ed0-b4ce-31ee9a4cb73a,-62.163,-21.781,2021-07-08T17:25:00,AQUA_M-T,Doctor Pedro P. Peña,Boquerón,Paraguay,POINT (-21.781 -62.163)
focos_ams_ontem_hoje_ref.9ccf3345-e957-39d0-9c34-4b0d268ee351,-62.188,-21.783,2021-07-08T17:25:00,AQUA_M-T,Doctor Pedro P. Peña,Boquerón,Paraguay,POINT (-21.783 -62.188)
focos_ams_ontem_hoje_ref.0aa123e1-053a-34c9-b694-f87198762e5a,-58.006,-22.117,2021-07-08T17:25:00,AQUA_M-T,La Victoria,Alto Paraguay,Paraguay,POINT (-22.117 -58.006)
focos_ams_ontem_hoje_ref.c5413aad-34f0-37a4-88bf-b2dd8e779b85,-57.992,-22.126,2021-07-08T17:25:00,AQUA_M-T,La Victoria,Alto Paraguay,Paraguay,POINT (-22.126 -57.992)
focos_ams_ontem_hoje_ref.9d0879e1-a98e-3f62-a13b-b87c711a0122,-58.005,-22.128,2021-07-08T17:25:00,AQUA_M-T,La Victoria,Alto Paraguay,Paraguay,POINT (-22.128 -58.005)
focos_ams_ontem_hoje_ref.31552ae5-036e-3df8-a4dd-4496d53f1039,-57.993,-22.116,2021-07-08T17:25:00,AQUA_M-T,La Victoria,Alto Paraguay,Paraguay,POINT (-22.116 -57.993)
focos_ams_ontem_hoje_ref.24a1a1a1-76ed-35bb-874d-493040348ea2,-62.192,-21.793,2021-07-08T17:25:00,AQUA_M-T,Doctor Pedro P. Peña,Boquerón,Paraguay,POINT (-21.793 -62.192)
focos_ams_ontem_hoje_ref.2b863d70-0d70-30e4-8947-83d8e505f8fe,-57.983,-22.143,2021-07-08T17:25:00,AQUA_M-T,La Victoria,Alto Paraguay,Paraguay,POINT (-22.143 -57.983)
focos_ams_ontem_hoje_ref.e3755df9-9579-3b51-8677-231ad3c8622f,-57.996,-22.145,2021-07-08T17:25:00,AQUA_M-T,La Victoria,Alto Paraguay,Paraguay,POINT (-22.145 -57.996)
focos_ams_ontem_hoje_ref.7f7c2545-a961-38d1-816a-a22259d4201c,-58.149,-22.145,2021-07-08T17:25:00,AQUA_M-T,La Victoria,Alto Paraguay,Paraguay,POINT (-22.145 -58.149)
focos_ams_ontem_hoje_ref.bd5ac7af-87b1-3e46-a2cc-70483951f526,-58.002,-22.148,2021-07-08T17:25:00,AQUA_M-T,La Victoria,Alto Paraguay,Paraguay,POINT (-22.148 -58.002)
focos_ams_ontem_hoje_ref.97c92807-e719-33a3-b5fe-1a049d828216,-57.989,-22.147,2021-07-08T17:25:00,AQUA_M-T,La Victoria,Alto Paraguay,Paraguay,POINT (-22.147 -57.989)
focos_ams_ontem_hoje_ref.4f7c1958-1039-3af8-87ee-84ecda86d074,-57.981,-22.153,2021-07-08T17:25:00,AQUA_M-T,La Victoria,Alto Paraguay,Paraguay,POINT (-22.153 -57.981)
focos_ams_ontem_hoje_ref.af860d3f-f4b0-364a-bc27-cceff55fb1fb,-56.439,-22.155,2021-07-08T17:25:00,AQUA_M-T,Bella Vista,Amambay,Paraguay,POINT (-22.155 -56.439)
focos_ams_ontem_hoje_ref.3f76c88a-b4a3-32d5-8679-7ed1fd459489,-57.994,-22.155,2021-07-08T17:25:00,AQUA_M-T,La Victoria,Alto Paraguay,Paraguay,POINT (-22.155 -57.994)
focos_ams_ontem_hoje_ref.0eaded7d-582d-32fa-ad67-a860c1f928eb,-56.45,-22.156,2021-07-08T17:25:00,AQUA_M-T,Bella Vista,Amambay,Paraguay,POINT (-22.156 -56.45)
focos_ams_ontem_hoje_ref.eec5d4a5-b1ce-3c5c-8413-0fe64c88078b,-56.449,-22.166,2021-07-08T17:25:00,AQUA_M-T,Bella Vista,Amambay,Paraguay,POINT (-22.166 -56.449)
focos_ams_ontem_hoje_ref.bc36114a-6a66-36f9-9802-22cbaa6c80b2,-58.641,-22.216,2021-07-08T17:25:00,AQUA_M-T,Puerto Pinasco,Presidente Hayes,Paraguay,POINT (-22.216 -58.641)
focos_ams_ontem_hoje_ref.050be762-f69b-3b56-b9ac-ee33b6746dd6,-56.46,-22.167,2021-07-08T17:25:00,AQUA_M-T,Bella Vista,Amambay,Paraguay,POINT (-22.167 -56.46)
focos_ams_ontem_hoje_ref.4275197e-e92f-3c7c-a3d4-de1ded60d8b5,-58.096,-22.188,2021-07-08T17:25:00,AQUA_M-T,La Victoria,Alto Paraguay,Paraguay,POINT (-22.188 -58.096)
focos_ams_ontem_hoje_ref.e7222b83-2f0e-3f47-ad29-f6a2a642816d,-58.35,-22.218,2021-07-08T17:25:00,AQUA_M-T,Puerto Pinasco,Presidente Hayes,Paraguay,POINT (-22.218 -58.35)
focos_ams_ontem_hoje_ref.59cfed40-8f89-3540-8fb3-fecc5f5de66e,-58.364,-22.22,2021-07-08T17:25:00,AQUA_M-T,Puerto Pinasco,Presidente Hayes,Paraguay,POINT (-22.22 -58.364)
focos_ams_ontem_hoje_ref.2d6aed5f-3de2-3483-b131-8076e835e121,-57.902,-22.541,2021-07-08T17:25:00,AQUA_M-T,Puerto Pinasco,Presidente Hayes,Paraguay,POINT (-22.541 -57.902)
focos_ams_ontem_hoje_ref.dba707b6-307d-3ef2-9794-2703c1bcac6f,-56.597,-24.96,2021-07-08T17:25:00,AQUA_M-T,Unión,San Pedro,Paraguay,POINT (-24.96 -56.597)
focos_ams_ontem_hoje_ref.3e187a39-5bbe-3d0e-9b04-0130cec2e48b,-53.015,-12.583,2021-07-08T17:25:00,AQUA_M-T,GAÚCHA DO NORTE,MATO GROSSO,Brasil,POINT (-12.583 -53.015)
focos_ams_ontem_hoje_ref.6dc233f7-a480-3fc3-bd44-0aa9169cf774,-52.999,-12.601,2021-07-08T17:25:00,AQUA_M-T,GAÚCHA DO NORTE,MATO GROSSO,Brasil,POINT (-12.601 -52.999)
focos_ams_ontem_hoje_ref.85ae7a95-d876-303e-ba02-fa6adcb16571,-59.358,-12.264,2021-07-08T17:25:00,AQUA_M-T,JUÍNA,MATO GROSSO,Brasil,POINT (-12.264 -59.358)
focos_ams_ontem_hoje_ref.ba399173-515a-3af4-b4be-bd83f0706d24,-56.771,-24.037,2021-07-08T17:25:00,AQUA_M-T,Lima,San Pedro,Paraguay,POINT (-24.037 -56.771)
focos_ams_ontem_hoje_ref.22045fac-2a78-3d11-92e2-c070f6d6e3c2,-58.437,-24.027,2021-07-08T17:25:00,AQUA_M-T,Villa Hayes,Presidente Hayes,Paraguay,POINT (-24.027 -58.437)
focos_ams_ontem_hoje_ref.5984da14-eb18-3645-9767-c13ccd1e4e4d,-57.193,-23.986,2021-07-08T17:25:00,AQUA_M-T,Antequera,San Pedro,Paraguay,POINT (-23.986 -57.193)
focos_ams_ontem_hoje_ref.8781a5da-03fd-3a20-b703-a2d2a3ab0812,-56.783,-24.038,2021-07-08T17:25:00,AQUA_M-T,Lima,San Pedro,Paraguay,POINT (-24.038 -56.783)
focos_ams_ontem_hoje_ref.bc293d29-3c54-3baf-b8b3-b1906752f745,-58.429,-24.04,2021-07-08T17:25:00,AQUA_M-T,Villa Hayes,Presidente Hayes,Paraguay,POINT (-24.04 -58.429)
focos_ams_ontem_hoje_ref.1be1e275-b231-36d8-9dff-86f4f9ebe3b3,-58.444,-24.041,2021-07-08T17:25:00,AQUA_M-T,Villa Hayes,Presidente Hayes,Paraguay,POINT (-24.041 -58.444)
focos_ams_ontem_hoje_ref.8056b3f6-2923-38a6-8e4d-ba8e7ccabb19,-56.177,-24.063,2021-07-08T17:25:00,AQUA_M-T,General Isidoro Resquín,San Pedro,Paraguay,POINT (-24.063 -56.177)
focos_ams_ontem_hoje_ref.378dea45-aead-3d02-b301-adb1a4a478b4,-44.878,-20.552,2021-07-08T17:25:00,AQUA_M-T,CARMO DA MATA,MINAS GERAIS,Brasil,POINT (-20.552 -44.878)
focos_ams_ontem_hoje_ref.14a4fe7b-c90b-3877-9b06-d7a302e558e5,-49.742,-21.611,2021-07-08T17:25:00,AQUA_M-T,LINS,SÃO PAULO,Brasil,POINT (-21.611 -49.742)
focos_ams_ontem_hoje_ref.dade4846-ee25-33bb-963c-87b52f1f607b,-53.315,-22.695,2021-07-08T17:25:00,AQUA_M-T,TAQUARUSSU,MATO GROSSO DO SUL,Brasil,POINT (-22.695 -53.315)
focos_ams_ontem_hoje_ref.893b02cb-eb59-335c-827f-7460188696a6,-53.425,-23.161,2021-07-08T17:25:00,AQUA_M-T,SANTA CRUZ DE MONTE CASTELO,PARANÁ,Brasil,POINT (-23.161 -53.425)
focos_ams_ontem_hoje_ref.0030b4ce-65a6-3625-87de-b87bce4ea263,-53.054,-23.621,2021-07-08T17:25:00,AQUA_M-T,CRUZEIRO DO OESTE,PARANÁ,Brasil,POINT (-23.621 -53.054)
focos_ams_ontem_hoje_ref.290f3fc9-b4f4-35ec-ad1a-5fd818984729,-54.557,-23.756,2021-07-08T17:25:00,AQUA_M-T,JAPORÃ,MATO GROSSO DO SUL,Brasil,POINT (-23.756 -54.557)
focos_ams_ontem_hoje_ref.312b498f-addb-3a3e-8f73-62282139baa6,-54.566,-23.757,2021-07-08T17:25:00,AQUA_M-T,JAPORÃ,MATO GROSSO DO SUL,Brasil,POINT (-23.757 -54.566)
focos_ams_ontem_hoje_ref.84538ff5-a3dc-3b60-9c4b-6d38f49acf7e,-49.182,-22.968,2021-07-08T17:25:00,AQUA_M-T,CERQUEIRA CÉSAR,SÃO PAULO,Brasil,POINT (-22.968 -49.182)
focos_ams_ontem_hoje_ref.7bf01971-70ce-3bf9-a2d4-a5870ecd4308,-49.188,-22.969,2021-07-08T17:25:00,AQUA_M-T,CERQUEIRA CÉSAR,SÃO PAULO,Brasil,POINT (-22.969 -49.188)
focos_ams_ontem_hoje_ref.6cff1e43-7ae6-338b-8e49-f29343da8dd5,-49.917,-24.373,2021-07-08T17:25:00,AQUA_M-T,PIRAÍ DO SUL,PARANÁ,Brasil,POINT (-24.373 -49.917)
focos_ams_ontem_hoje_ref.70e5aede-c0cf-3269-a802-f56e98a4e3cf,-53.7,-24.958,2021-07-08T17:25:00,AQUA_M-T,SÃO PEDRO DO IGUAÇU,PARANÁ,Brasil,POINT (-24.958 -53.7)
focos_ams_ontem_hoje_ref.96f017c5-0316-3d8d-80a0-a871858f9256,-49.911,-24.379,2021-07-08T17:25:00,AQUA_M-T,PIRAÍ DO SUL,PARANÁ,Brasil,POINT (-24.379 -49.911)
focos_ams_ontem_hoje_ref.685979d6-fe7c-3161-b30b-841af3b20276,-49.924,-24.381,2021-07-08T17:25:00,AQUA_M-T,PIRAÍ DO SUL,PARANÁ,Brasil,POINT (-24.381 -49.924)
focos_ams_ontem_hoje_ref.46f49b7c-dfd4-3a46-bb35-e7b1c6ef8a99,-48.054,-16.141,2021-07-08T17:25:00,AQUA_M-T,NOVO GAMA,GOIÁS,Brasil,POINT (-16.141 -48.054)
focos_ams_ontem_hoje_ref.9f225648-15be-3b6f-af25-16d5d519e42e,-50.686,-16.79,2021-07-08T17:25:00,AQUA_M-T,CACHOEIRA DE GOIÁS,GOIÁS,Brasil,POINT (-16.79 -50.686)
focos_ams_ontem_hoje_ref.83d8271d-747c-3db1-b6d5-76f80eb898af,-47.303,-17.247,2021-07-08T17:25:00,AQUA_M-T,PARACATU,MINAS GERAIS,Brasil,POINT (-17.247 -47.303)
focos_ams_ontem_hoje_ref.3cafa87c-0d95-3008-bf7c-064cea16a83c,-47.308,-17.246,2021-07-08T17:25:00,AQUA_M-T,PARACATU,MINAS GERAIS,Brasil,POINT (-17.246 -47.308)
focos_ams_ontem_hoje_ref.518ae29c-884c-3428-9118-ce374c0d3539,-46.407,-17.289,2021-07-08T17:25:00,AQUA_M-T,JOÃO PINHEIRO,MINAS GERAIS,Brasil,POINT (-17.289 -46.407)
focos_ams_ontem_hoje_ref.2619c114-79f5-3547-9e69-e5a5cdbc3df1,-46.41,-17.294,2021-07-08T17:25:00,AQUA_M-T,JOÃO PINHEIRO,MINAS GERAIS,Brasil,POINT (-17.294 -46.41)
focos_ams_ontem_hoje_ref.3e3ef5d4-6278-3087-8aed-e69c8ee97779,-44.368,-17.652,2021-07-08T17:25:00,AQUA_M-T,FRANCISCO DUMONT,MINAS GERAIS,Brasil,POINT (-17.652 -44.368)
focos_ams_ontem_hoje_ref.62f7ea07-d3e4-3b4f-8475-6383c17db35e,-44.372,-17.653,2021-07-08T17:25:00,AQUA_M-T,FRANCISCO DUMONT,MINAS GERAIS,Brasil,POINT (-17.653 -44.372)
focos_ams_ontem_hoje_ref.2507c46b-7c53-38cf-bfdf-4b78ef72d531,-52.332,-18.884,2021-07-08T17:25:00,AQUA_M-T,CASSILÂNDIA,MATO GROSSO DO SUL,Brasil,POINT (-18.884 -52.332)
focos_ams_ontem_hoje_ref.d9824679-cbcd-3cee-9901-f1bdb3dc088f,-52.343,-18.886,2021-07-08T17:25:00,AQUA_M-T,CASSILÂNDIA,MATO GROSSO DO SUL,Brasil,POINT (-18.886 -52.343)
focos_ams_ontem_hoje_ref.65b298fc-2d74-3161-a038-e8d366623c93,-46.471,-19.514,2021-07-08T17:25:00,AQUA_M-T,IBIÁ,MINAS GERAIS,Brasil,POINT (-19.514 -46.471)
focos_ams_ontem_hoje_ref.a37246f3-4b82-37d9-98ec-2213a89d9d5f,-45.022,-19.234,2021-07-08T17:25:00,AQUA_M-T,POMPÉU,MINAS GERAIS,Brasil,POINT (-19.234 -45.022)
focos_ams_ontem_hoje_ref.eeecccaf-3d1c-3f40-acb7-c42cb7f75542,-46.467,-19.514,2021-07-08T17:25:00,AQUA_M-T,IBIÁ,MINAS GERAIS,Brasil,POINT (-19.514 -46.467)
focos_ams_ontem_hoje_ref.35e5665a-cb28-3ac9-a8e2-78a79a9b94bf,-47.973,-19.751,2021-07-08T17:25:00,AQUA_M-T,UBERABA,MINAS GERAIS,Brasil,POINT (-19.751 -47.973)
focos_ams_ontem_hoje_ref.3723437a-9a1b-373a-b33c-406d67a78572,-47.993,-19.754,2021-07-08T17:25:00,AQUA_M-T,UBERABA,MINAS GERAIS,Brasil,POINT (-19.754 -47.993)
focos_ams_ontem_hoje_ref.8b0b19ba-1301-3ac2-b650-ac93af55c188,-45.213,-19.894,2021-07-08T17:25:00,AQUA_M-T,ARAÚJOS,MINAS GERAIS,Brasil,POINT (-19.894 -45.213)
focos_ams_ontem_hoje_ref.893001ef-a806-3bba-b87c-a0d2be064901,-45.22,-19.9,2021-07-08T17:25:00,AQUA_M-T,ARAÚJOS,MINAS GERAIS,Brasil,POINT (-19.9 -45.22)
focos_ams_ontem_hoje_ref.dd33c244-d499-3df7-8aea-31670cd63172,-47.733,-20.365,2021-07-08T17:25:00,AQUA_M-T,ITUVERAVA,SÃO PAULO,Brasil,POINT (-20.365 -47.733)
focos_ams_ontem_hoje_ref.284c9281-bf0a-3730-99f6-d37b463d18b9,-46.551,-20.392,2021-07-08T17:25:00,AQUA_M-T,DELFINÓPOLIS,MINAS GERAIS,Brasil,POINT (-20.392 -46.551)
focos_ams_ontem_hoje_ref.88309d60-9abc-344c-939d-06a86f5e7b30,-47.754,-20.369,2021-07-08T17:25:00,AQUA_M-T,ITUVERAVA,SÃO PAULO,Brasil,POINT (-20.369 -47.754)
focos_ams_ontem_hoje_ref.c4752533-d72a-3400-9f49-4236ebb51685,-46.547,-20.406,2021-07-08T17:25:00,AQUA_M-T,DELFINÓPOLIS,MINAS GERAIS,Brasil,POINT (-20.406 -46.547)
focos_ams_ontem_hoje_ref.07c8eca8-16fa-3e80-8178-033cf60d596a,-47.817,-20.447,2021-07-08T17:25:00,AQUA_M-T,GUARÁ,SÃO PAULO,Brasil,POINT (-20.447 -47.817)
focos_ams_ontem_hoje_ref.069d041f-d5ea-3379-a284-e8c9e09ead4e,-47.973,-21.095,2021-07-08T17:25:00,AQUA_M-T,SERTÃOZINHO,SÃO PAULO,Brasil,POINT (-21.095 -47.973)
focos_ams_ontem_hoje_ref.8fe398b4-e846-3c9c-a8c5-3c3974716d58,-47.978,-21.096,2021-07-08T17:25:00,AQUA_M-T,SERTÃOZINHO,SÃO PAULO,Brasil,POINT (-21.096 -47.978)
focos_ams_ontem_hoje_ref.f6aa6bf7-a99f-3baa-a36b-b06a69a2fdd5,-47.993,-21.099,2021-07-08T17:25:00,AQUA_M-T,SERTÃOZINHO,SÃO PAULO,Brasil,POINT (-21.099 -47.993)
focos_ams_ontem_hoje_ref.224ef402-541e-3abc-8731-5eaa28d2f0cd,-48.431,-21.101,2021-07-08T17:25:00,AQUA_M-T,TAIÚVA,SÃO PAULO,Brasil,POINT (-21.101 -48.431)
focos_ams_ontem_hoje_ref.7808a6eb-f535-3a4c-a5b3-8e3ed26cde17,-48.45,-21.104,2021-07-08T17:25:00,AQUA_M-T,TAIÚVA,SÃO PAULO,Brasil,POINT (-21.104 -48.45)
focos_ams_ontem_hoje_ref.9621916a-8cce-3709-bbbf-17a725f6881c,-52.702,-21.848,2021-07-08T17:25:00,AQUA_M-T,ANAURILÂNDIA,MATO GROSSO DO SUL,Brasil,POINT (-21.848 -52.702)
focos_ams_ontem_hoje_ref.77d9638b-d673-3327-894d-ddc1788cb564,-46.935,-21.759,2021-07-08T17:25:00,AQUA_M-T,ITOBI,SÃO PAULO,Brasil,POINT (-21.759 -46.935)
focos_ams_ontem_hoje_ref.3e804852-a623-3210-a8aa-27949eb771bb,-48.413,-21.837,2021-07-08T17:25:00,AQUA_M-T,GAVIÃO PEIXOTO,SÃO PAULO,Brasil,POINT (-21.837 -48.413)
focos_ams_ontem_hoje_ref.0aaae1cf-2c0b-3fb7-a58d-d9bc79c0b076,-48.149,-21.905,2021-07-08T17:25:00,AQUA_M-T,ARARAQUARA,SÃO PAULO,Brasil,POINT (-21.905 -48.149)
focos_ams_ontem_hoje_ref.7f52cf39-7d23-33ca-9844-b4993701cec3,-48.167,-21.909,2021-07-08T17:25:00,AQUA_M-T,ARARAQUARA,SÃO PAULO,Brasil,POINT (-21.909 -48.167)
focos_ams_ontem_hoje_ref.ccf1abf4-8d73-38da-8f77-55e1c95a560e,-52.921,-21.909,2021-07-08T17:25:00,AQUA_M-T,ANAURILÂNDIA,MATO GROSSO DO SUL,Brasil,POINT (-21.909 -52.921)
focos_ams_ontem_hoje_ref.22ab1ac9-ae1a-3bde-89fc-a89cab517964,-52.931,-21.911,2021-07-08T17:25:00,AQUA_M-T,ANAURILÂNDIA,MATO GROSSO DO SUL,Brasil,POINT (-21.911 -52.931)
focos_ams_ontem_hoje_ref.48b274bb-6db5-3463-8644-81dd51be590d,-48.165,-21.921,2021-07-08T17:25:00,AQUA_M-T,ARARAQUARA,SÃO PAULO,Brasil,POINT (-21.921 -48.165)
focos_ams_ontem_hoje_ref.5ebfe93e-7229-352a-853d-6ff6805c5efa,-48.147,-21.917,2021-07-08T17:25:00,AQUA_M-T,ARARAQUARA,SÃO PAULO,Brasil,POINT (-21.917 -48.147)
focos_ams_ontem_hoje_ref.6b0566b0-ccd5-3d40-a720-96d32c42d656,-47.099,-21.936,2021-07-08T17:25:00,AQUA_M-T,CASA BRANCA,SÃO PAULO,Brasil,POINT (-21.936 -47.099)
focos_ams_ontem_hoje_ref.5a190bf7-0ecf-342f-8fe8-69f0e0c37339,-47.115,-21.937,2021-07-08T17:25:00,AQUA_M-T,CASA BRANCA,SÃO PAULO,Brasil,POINT (-21.937 -47.115)
focos_ams_ontem_hoje_ref.56092805-16eb-3a9e-a7c5-e30b6845a477,-47.121,-21.94,2021-07-08T17:25:00,AQUA_M-T,CASA BRANCA,SÃO PAULO,Brasil,POINT (-21.94 -47.121)
focos_ams_ontem_hoje_ref.6ba40c6f-bd69-3dc3-b884-f9750a18848a,-46.998,-21.942,2021-07-08T17:25:00,AQUA_M-T,CASA BRANCA,SÃO PAULO,Brasil,POINT (-21.942 -46.998)
focos_ams_ontem_hoje_ref.0017ddcb-89cb-3637-90e3-509a9ffa1de7,-47.021,-21.946,2021-07-08T17:25:00,AQUA_M-T,CASA BRANCA,SÃO PAULO,Brasil,POINT (-21.946 -47.021)
focos_ams_ontem_hoje_ref.70c25b7e-c598-325b-85a3-60f5bb37b502,-57.061,-20.443,2021-07-08T17:25:00,AQUA_M-T,PORTO MURTINHO,MATO GROSSO DO SUL,Brasil,POINT (-20.443 -57.061)
focos_ams_ontem_hoje_ref.8e429ce8-7808-3e56-aa30-f9700933b2ea,-56.627,-21.447,2021-07-08T17:25:00,AQUA_M-T,JARDIM,MATO GROSSO DO SUL,Brasil,POINT (-21.447 -56.627)
focos_ams_ontem_hoje_ref.aefe675d-b3eb-3209-8e90-5d56c10ec188,-55.804,-21.366,2021-07-08T17:25:00,AQUA_M-T,NIOAQUE,MATO GROSSO DO SUL,Brasil,POINT (-21.366 -55.804)
focos_ams_ontem_hoje_ref.44dd6ca9-d1fb-3bff-9d14-4c3d652aa4bf,-56.617,-21.445,2021-07-08T17:25:00,AQUA_M-T,JARDIM,MATO GROSSO DO SUL,Brasil,POINT (-21.445 -56.617)
focos_ams_ontem_hoje_ref.0bca4451-16af-3280-b24a-379937961d66,-56.638,-21.448,2021-07-08T17:25:00,AQUA_M-T,JARDIM,MATO GROSSO DO SUL,Brasil,POINT (-21.448 -56.638)
focos_ams_ontem_hoje_ref.b24e2350-323e-3a3b-8ea9-e8305e848638,-56.637,-21.458,2021-07-08T17:25:00,AQUA_M-T,JARDIM,MATO GROSSO DO SUL,Brasil,POINT (-21.458 -56.637)
focos_ams_ontem_hoje_ref.f9d16fcc-e59f-3bff-ae37-54160055e96a,-56.647,-21.459,2021-07-08T17:25:00,AQUA_M-T,JARDIM,MATO GROSSO DO SUL,Brasil,POINT (-21.459 -56.647)
focos_ams_ontem_hoje_ref.74015c0a-3ed2-3a59-a122-7c2ff61d2580,-56.655,-21.479,2021-07-08T17:25:00,AQUA_M-T,JARDIM,MATO GROSSO DO SUL,Brasil,POINT (-21.479 -56.655)
focos_ams_ontem_hoje_ref.220e9c45-6899-3535-ac30-820e1bf6fa08,-56.686,-21.493,2021-07-08T17:25:00,AQUA_M-T,JARDIM,MATO GROSSO DO SUL,Brasil,POINT (-21.493 -56.686)
focos_ams_ontem_hoje_ref.62cf9cce-8863-3195-b199-f31390e477be,-56.674,-21.501,2021-07-08T17:25:00,AQUA_M-T,JARDIM,MATO GROSSO DO SUL,Brasil,POINT (-21.501 -56.674)
focos_ams_ontem_hoje_ref.933ab2fa-5ce6-39e8-9b03-79aebf62d67f,-56.697,-21.494,2021-07-08T17:25:00,AQUA_M-T,JARDIM,MATO GROSSO DO SUL,Brasil,POINT (-21.494 -56.697)
focos_ams_ontem_hoje_ref.6946f7e4-60f2-3f01-95ad-f44ec636ee6c,-56.696,-21.504,2021-07-08T17:25:00,AQUA_M-T,JARDIM,MATO GROSSO DO SUL,Brasil,POINT (-21.504 -56.696)
focos_ams_ontem_hoje_ref.7ed94dd3-e65c-374d-bd0a-febe2ee0d4ba,-56.348,-21.54,2021-07-08T17:25:00,AQUA_M-T,JARDIM,MATO GROSSO DO SUL,Brasil,POINT (-21.54 -56.348)
focos_ams_ontem_hoje_ref.4a17db8a-367d-3242-ad55-a104adc57a8a,-56.001,-22.227,2021-07-08T17:25:00,AQUA_M-T,ANTÔNIO JOÃO,MATO GROSSO DO SUL,Brasil,POINT (-22.227 -56.001)
focos_ams_ontem_hoje_ref.f836e980-38c9-3747-8dd0-bb986c0d9fe4,-56.007,-22.282,2021-07-08T17:25:00,AQUA_M-T,ANTÔNIO JOÃO,MATO GROSSO DO SUL,Brasil,POINT (-22.282 -56.007)
focos_ams_ontem_hoje_ref.dafcd58d-aa29-30fd-8127-6f35f42adc24,-55.688,-22.524,2021-07-08T17:25:00,AQUA_M-T,PONTA PORÃ,MATO GROSSO DO SUL,Brasil,POINT (-22.524 -55.688)
focos_ams_ontem_hoje_ref.186cede3-ce48-3dbc-b673-19de1d98d628,-60.881,-24.27,2021-07-08T17:25:00,AQUA_M-T,Bermejo,Formosa,Argentina,POINT (-24.27 -60.881)
focos_ams_ontem_hoje_ref.0851f677-2188-325d-8b61-37d269dde893,-60.897,-24.27,2021-07-08T17:25:00,AQUA_M-T,Bermejo,Formosa,Argentina,POINT (-24.27 -60.897)
focos_ams_ontem_hoje_ref.434b5edb-47fc-35ae-bc0b-d79e523aa86a,-57.676,-24.29,2021-07-08T17:25:00,AQUA_M-T,Villa Hayes,Presidente Hayes,Paraguay,POINT (-24.29 -57.676)
focos_ams_ontem_hoje_ref.ac46778b-1eba-3066-b9bd-5829ebf9d684,-56.486,-24.305,2021-07-08T17:25:00,AQUA_M-T,San Estanislao,San Pedro,Paraguay,POINT (-24.305 -56.486)
focos_ams_ontem_hoje_ref.3177dc85-0e49-3faf-b842-4ad668ecc160,-57.746,-24.326,2021-07-08T17:25:00,AQUA_M-T,Villa Hayes,Presidente Hayes,Paraguay,POINT (-24.326 -57.746)
focos_ams_ontem_hoje_ref.f2eb1c1e-b37c-39c9-9d42-bc58f75db74c,-55.631,-24.315,2021-07-08T17:25:00,AQUA_M-T,Villa San Isidro Curuguaty,Canindeyú,Paraguay,POINT (-24.315 -55.631)
focos_ams_ontem_hoje_ref.ad90a422-0117-3945-8796-829bbd6586c4,-55.385,-24.336,2021-07-08T17:25:00,AQUA_M-T,Villa Ygatimí,Canindeyú,Paraguay,POINT (-24.336 -55.385)
focos_ams_ontem_hoje_ref.3b82da45-a2e7-3518-a371-cb532965cede,-57.744,-24.337,2021-07-08T17:25:00,AQUA_M-T,Villa Hayes,Presidente Hayes,Paraguay,POINT (-24.337 -57.744)
focos_ams_ontem_hoje_ref.e3574b38-f8af-321a-8366-3c0a61d6a736,-57.758,-24.338,2021-07-08T17:25:00,AQUA_M-T,Villa Hayes,Presidente Hayes,Paraguay,POINT (-24.338 -57.758)
focos_ams_ontem_hoje_ref.2f243fb3-02da-31a7-a792-ab88f7f7b4cb,-58.398,-24.364,2021-07-08T17:25:00,AQUA_M-T,Villa Hayes,Presidente Hayes,Paraguay,POINT (-24.364 -58.398)
focos_ams_ontem_hoje_ref.f8c6dd7c-8ed7-310a-863e-2c745482b98c,-58.413,-24.366,2021-07-08T17:25:00,AQUA_M-T,Villa Hayes,Presidente Hayes,Paraguay,POINT (-24.366 -58.413)
focos_ams_ontem_hoje_ref.5a1f17df-7627-3373-8b40-78809396ae40,-55.32,-24.372,2021-07-08T17:25:00,AQUA_M-T,Villa San Isidro Curuguaty,Canindeyú,Paraguay,POINT (-24.372 -55.32)
focos_ams_ontem_hoje_ref.28c5df9f-9984-3805-995f-dba55f1bb0da,-57.189,-24.372,2021-07-08T17:25:00,AQUA_M-T,Villa Hayes,Presidente Hayes,Paraguay,POINT (-24.372 -57.189)
focos_ams_ontem_hoje_ref.35336867-e1a4-33f4-8c6e-3d862c4ccffd,-58.389,-24.377,2021-07-08T17:25:00,AQUA_M-T,Villa Hayes,Presidente Hayes,Paraguay,POINT (-24.377 -58.389)
focos_ams_ontem_hoje_ref.dd6e7fe3-d68d-3556-aae8-ceef59359127,-58.381,-24.374,2021-07-08T17:25:00,AQUA_M-T,Villa Hayes,Presidente Hayes,Paraguay,POINT (-24.374 -58.381)
focos_ams_ontem_hoje_ref.5a62c01b-cdc9-3110-bfca-9287771827b5,-58.396,-24.375,2021-07-08T17:25:00,AQUA_M-T,Villa Hayes,Presidente Hayes,Paraguay,POINT (-24.375 -58.396)
focos_ams_ontem_hoje_ref.d425d2d4-3c27-39ed-8b11-bd4e62b6d5b2,-58.411,-24.377,2021-07-08T17:25:00,AQUA_M-T,Villa Hayes,Presidente Hayes,Paraguay,POINT (-24.377 -58.411)
focos_ams_ontem_hoje_ref.701d10c0-6a54-3dca-93c7-e61b4b56db9f,-58.404,-24.379,2021-07-08T17:25:00,AQUA_M-T,Villa Hayes,Presidente Hayes,Paraguay,POINT (-24.379 -58.404)
focos_ams_ontem_hoje_ref.913e6386-a002-3bfe-964c-681168e76626,-57.057,-24.407,2021-07-08T17:25:00,AQUA_M-T,Villa del Rosario,San Pedro,Paraguay,POINT (-24.407 -57.057)
focos_ams_ontem_hoje_ref.afe658d9-555d-305d-91a8-033939f5591a,-57.062,-24.407,2021-07-08T17:25:00,AQUA_M-T,Villa del Rosario,San Pedro,Paraguay,POINT (-24.407 -57.062)
focos_ams_ontem_hoje_ref.1cfb73b7-bd43-35b3-90ff-796bd48d2d1e,-57.061,-24.417,2021-07-08T17:25:00,AQUA_M-T,Villa del Rosario,San Pedro,Paraguay,POINT (-24.417 -57.061)
focos_ams_ontem_hoje_ref.96b73f98-9b2d-3cf7-97a0-33c8408586ea,-55.528,-24.409,2021-07-08T17:25:00,AQUA_M-T,Villa San Isidro Curuguaty,Canindeyú,Paraguay,POINT (-24.409 -55.528)
focos_ams_ontem_hoje_ref.6502b091-bba9-358c-91dd-adc530d265d6,-56.03,-24.42,2021-07-08T17:25:00,AQUA_M-T,Villa San Isidro Curuguaty,Canindeyú,Paraguay,POINT (-24.42 -56.03)
focos_ams_ontem_hoje_ref.944a3160-f7e3-3e78-ad7e-a0b786f6611a,-57.172,-24.441,2021-07-08T17:25:00,AQUA_M-T,Villa Hayes,Presidente Hayes,Paraguay,POINT (-24.441 -57.172)
focos_ams_ontem_hoje_ref.a7e5fab1-e817-33a0-9a8b-f8cd37bb9ad7,-55.931,-24.509,2021-07-08T17:25:00,AQUA_M-T,Villa San Isidro Curuguaty,Canindeyú,Paraguay,POINT (-24.509 -55.931)
focos_ams_ontem_hoje_ref.80af875f-39f4-3d2f-8db9-47f6f3e4c3a6,-55.942,-24.51,2021-07-08T17:25:00,AQUA_M-T,Villa San Isidro Curuguaty,Canindeyú,Paraguay,POINT (-24.51 -55.942)
focos_ams_ontem_hoje_ref.641dcb26-c93d-3ce7-8d6d-b8c5eaf3772c,-55.698,-22.525,2021-07-08T17:25:00,AQUA_M-T,PONTA PORÃ,MATO GROSSO DO SUL,Brasil,POINT (-22.525 -55.698)
focos_ams_ontem_hoje_ref.d05f1197-892b-3900-8094-30d81b834991,-55.889,-24.629,2021-07-08T17:25:00,AQUA_M-T,Villa San Isidro Curuguaty,Canindeyú,Paraguay,POINT (-24.629 -55.889)
focos_ams_ontem_hoje_ref.c5eb657f-79bb-3b49-a2e7-b2a1ca5638eb,-55.141,-24.642,2021-07-08T17:25:00,AQUA_M-T,Itakyry,Alto Paraná,Paraguay,POINT (-24.642 -55.141)
focos_ams_ontem_hoje_ref.d31bbcd6-df96-3219-a2bd-35f043210629,-55.152,-24.643,2021-07-08T17:25:00,AQUA_M-T,Itakyry,Alto Paraná,Paraguay,POINT (-24.643 -55.152)
focos_ams_ontem_hoje_ref.b1bfba5b-335d-3c1a-8dcd-6ee61f3ff86b,-56.93,-24.675,2021-07-08T17:25:00,AQUA_M-T,Itacurubí del Rosario,San Pedro,Paraguay,POINT (-24.675 -56.93)
focos_ams_ontem_hoje_ref.df256284-b201-3520-b3b7-ac7bde2102c6,-57.112,-24.738,2021-07-08T17:25:00,AQUA_M-T,Villa del Rosario,San Pedro,Paraguay,POINT (-24.738 -57.112)
focos_ams_ontem_hoje_ref.a4df459f-9f57-3804-b4fa-1a1f8e208b08,-57.528,-24.788,2021-07-08T17:25:00,AQUA_M-T,Villa Hayes,Presidente Hayes,Paraguay,POINT (-24.788 -57.528)
focos_ams_ontem_hoje_ref.252441c3-f8f5-30ae-a698-29f91b446b35,-57.525,-24.809,2021-07-08T17:25:00,AQUA_M-T,Benjamín Aceval,Presidente Hayes,Paraguay,POINT (-24.809 -57.525)
focos_ams_ontem_hoje_ref.65ddc84f-60f9-322b-8df2-5bba36189a24,-55.902,-24.823,2021-07-08T17:25:00,AQUA_M-T,Yhú,Caaguazú,Paraguay,POINT (-24.823 -55.902)
focos_ams_ontem_hoje_ref.eb6e8d16-6061-3d39-9811-de45e0bca5a3,-57.514,-24.786,2021-07-08T17:25:00,AQUA_M-T,Villa Hayes,Presidente Hayes,Paraguay,POINT (-24.786 -57.514)
focos_ams_ontem_hoje_ref.efd59e07-a743-3b71-8914-e68bb745b5d8,-55.914,-24.825,2021-07-08T17:25:00,AQUA_M-T,Yhú,Caaguazú,Paraguay,POINT (-24.825 -55.914)
focos_ams_ontem_hoje_ref.bcd9d41f-16e2-38cf-aa30-9273cc3f736d,-56.136,-24.829,2021-07-08T17:25:00,AQUA_M-T,San Estanislao,San Pedro,Paraguay,POINT (-24.829 -56.136)
focos_ams_ontem_hoje_ref.2041fd3d-21ee-3659-8e35-38782abe983a,-55.86,-24.876,2021-07-08T17:25:00,AQUA_M-T,Yhú,Caaguazú,Paraguay,POINT (-24.876 -55.86)
focos_ams_ontem_hoje_ref.8a3e532b-929b-3e32-adda-ae756be10b85,-60.417,-24.884,2021-07-08T17:25:00,AQUA_M-T,Patiño,Formosa,Argentina,POINT (-24.884 -60.417)
focos_ams_ontem_hoje_ref.dfa115ef-7fa4-3ff4-be89-96feff3c3535,-60.412,-24.883,2021-07-08T17:25:00,AQUA_M-T,Patiño,Formosa,Argentina,POINT (-24.883 -60.412)
focos_ams_ontem_hoje_ref.d96701d7-c5c4-310e-bc00-1e722d105d0e,-60.433,-24.885,2021-07-08T17:25:00,AQUA_M-T,Patiño,Formosa,Argentina,POINT (-24.885 -60.433)
focos_ams_ontem_hoje_ref.ca282c99-0e13-35cc-b12c-deda3d37dbe5,-55.216,-24.892,2021-07-08T17:25:00,AQUA_M-T,Itakyry,Alto Paraná,Paraguay,POINT (-24.892 -55.216)
focos_ams_ontem_hoje_ref.aa7ff861-ee27-310e-9bfa-b5515127604a,-56.513,-24.949,2021-07-08T17:25:00,AQUA_M-T,Unión,San Pedro,Paraguay,POINT (-24.949 -56.513)
focos_ams_ontem_hoje_ref.2d7944ea-d76a-3a26-af5a-80c27dc28f06,-56.512,-24.959,2021-07-08T17:25:00,AQUA_M-T,Unión,San Pedro,Paraguay,POINT (-24.959 -56.512)
focos_ams_ontem_hoje_ref.a53acecb-1cc3-3fbc-a554-2376d228d52f,-63.8,-13.528,2021-07-08T17:25:00,AQUA_M-T,Vaca Díez,El Beni,Bolivia,POINT (-13.528 -63.8)
focos_ams_ontem_hoje_ref.577a69b7-f315-398e-b925-4dc5fcd601cf,-63.768,-13.53,2021-07-08T17:25:00,AQUA_M-T,Vaca Díez,El Beni,Bolivia,POINT (-13.53 -63.768)
focos_ams_ontem_hoje_ref.f2025b97-a92f-32f2-a47c-16a2112cba7f,-63.792,-13.532,2021-07-08T17:25:00,AQUA_M-T,Vaca Díez,El Beni,Bolivia,POINT (-13.532 -63.792)
focos_ams_ontem_hoje_ref.47f095a8-bf39-33f1-b3ef-eb56e2f21886,-57.881,-22.264,2021-07-08T17:25:00,AQUA_M-T,San Lázaro,Concepción,Paraguay,POINT (-22.264 -57.881)
focos_ams_ontem_hoje_ref.b7b8f90a-40f3-39bc-93fb-f29bdbe7fca5,-57.599,-22.27,2021-07-08T17:25:00,AQUA_M-T,San Lázaro,Concepción,Paraguay,POINT (-22.27 -57.599)
focos_ams_ontem_hoje_ref.396cdb63-6fed-3809-9eca-434378372e33,-57.611,-22.272,2021-07-08T17:25:00,AQUA_M-T,San Lázaro,Concepción,Paraguay,POINT (-22.272 -57.611)
focos_ams_ontem_hoje_ref.95573b39-62b5-3e91-b647-8599e6ad9c80,-57.983,-22.287,2021-07-08T17:25:00,AQUA_M-T,La Victoria,Alto Paraguay,Paraguay,POINT (-22.287 -57.983)
focos_ams_ontem_hoje_ref.02af0c2d-1fbe-34ff-bff0-a69f8a0bdb19,-57.985,-22.276,2021-07-08T17:25:00,AQUA_M-T,La Victoria,Alto Paraguay,Paraguay,POINT (-22.276 -57.985)
focos_ams_ontem_hoje_ref.a3f95625-1e6b-3119-891a-90dbf60ca56d,-61.901,-22.278,2021-07-08T17:25:00,AQUA_M-T,Doctor Pedro P. Peña,Boquerón,Paraguay,POINT (-22.278 -61.901)
focos_ams_ontem_hoje_ref.ebc25697-800a-3b1e-9e1e-2f97b75f6c8d,-56.961,-22.291,2021-07-08T17:25:00,AQUA_M-T,Concepción,Concepción,Paraguay,POINT (-22.291 -56.961)
focos_ams_ontem_hoje_ref.64bfe75a-2403-3b64-9653-a1b303fe5a47,-56.967,-22.293,2021-07-08T17:25:00,AQUA_M-T,Concepción,Concepción,Paraguay,POINT (-22.293 -56.967)
focos_ams_ontem_hoje_ref.2a238322-656e-3964-a827-c9ec83410495,-57.233,-22.296,2021-07-08T17:25:00,AQUA_M-T,San Carlos,Concepción,Paraguay,POINT (-22.296 -57.233)
focos_ams_ontem_hoje_ref.89ad9249-d97d-3d99-a8f8-5ef67ae76622,-59.228,-22.308,2021-07-08T17:25:00,AQUA_M-T,Pozo Colorado,Presidente Hayes,Paraguay,POINT (-22.308 -59.228)
focos_ams_ontem_hoje_ref.dc86b2d1-a004-361f-bf4a-d6f4f2484dea,-59.244,-22.31,2021-07-08T17:25:00,AQUA_M-T,Pozo Colorado,Presidente Hayes,Paraguay,POINT (-22.31 -59.244)
focos_ams_ontem_hoje_ref.727071f5-3552-35d6-8670-f1a54f0fcf1b,-57.559,-22.326,2021-07-08T17:25:00,AQUA_M-T,San Lázaro,Concepción,Paraguay,POINT (-22.326 -57.559)
focos_ams_ontem_hoje_ref.7683702b-437d-35f5-b3e8-196325adc40d,-57.535,-22.323,2021-07-08T17:25:00,AQUA_M-T,San Lázaro,Concepción,Paraguay,POINT (-22.323 -57.535)
focos_ams_ontem_hoje_ref.f82e9ecb-54f3-325b-8ed4-fb74e507a471,-57.521,-22.332,2021-07-08T17:25:00,AQUA_M-T,San Carlos,Concepción,Paraguay,POINT (-22.332 -57.521)
focos_ams_ontem_hoje_ref.b417ee24-9c2f-305d-be2a-3725ca204d29,-57.943,-22.342,2021-07-08T17:25:00,AQUA_M-T,La Victoria,Alto Paraguay,Paraguay,POINT (-22.342 -57.943)
focos_ams_ontem_hoje_ref.28458758-77e0-35e1-aa14-96a30a9834d8,-57.861,-22.364,2021-07-08T17:25:00,AQUA_M-T,La Victoria,Alto Paraguay,Paraguay,POINT (-22.364 -57.861)
focos_ams_ontem_hoje_ref.b943bcd1-bbc3-3c16-aec1-29a29b9dd5ef,-58.072,-22.368,2021-07-08T17:25:00,AQUA_M-T,Puerto Pinasco,Presidente Hayes,Paraguay,POINT (-22.368 -58.072)
focos_ams_ontem_hoje_ref.c72afb39-070c-35bf-9858-75e3cd58202b,-58.057,-22.377,2021-07-08T17:25:00,AQUA_M-T,Puerto Pinasco,Presidente Hayes,Paraguay,POINT (-22.377 -58.057)
focos_ams_ontem_hoje_ref.330f89a6-97f6-3213-bdea-f8bd0fabc135,-58.071,-22.378,2021-07-08T17:25:00,AQUA_M-T,Puerto Pinasco,Presidente Hayes,Paraguay,POINT (-22.378 -58.071)
focos_ams_ontem_hoje_ref.ef779976-1cf7-3f08-89f0-2602a5954a50,-58.287,-22.393,2021-07-08T17:25:00,AQUA_M-T,Puerto Pinasco,Presidente Hayes,Paraguay,POINT (-22.393 -58.287)
focos_ams_ontem_hoje_ref.f9efab6c-2ccb-32b1-b80d-96fd44124f1e,-57.104,-22.4,2021-07-08T17:25:00,AQUA_M-T,San Carlos,Concepción,Paraguay,POINT (-22.4 -57.104)
focos_ams_ontem_hoje_ref.3f2d59dd-814b-3869-a5be-12dd9a2bf6f4,-57.948,-22.395,2021-07-08T17:25:00,AQUA_M-T,Puerto Pinasco,Presidente Hayes,Paraguay,POINT (-22.395 -57.948)
focos_ams_ontem_hoje_ref.372c608b-a920-39d2-b478-cfdcaa345dca,-58.3,-22.395,2021-07-08T17:25:00,AQUA_M-T,Puerto Pinasco,Presidente Hayes,Paraguay,POINT (-22.395 -58.3)
focos_ams_ontem_hoje_ref.757298cc-bbb8-3066-970a-9b17642f3d6a,-57.682,-22.401,2021-07-08T17:25:00,AQUA_M-T,Concepción,Concepción,Paraguay,POINT (-22.401 -57.682)
focos_ams_ontem_hoje_ref.712f1874-e1bb-370a-b881-130258b12634,-57.116,-22.402,2021-07-08T17:25:00,AQUA_M-T,San Carlos,Concepción,Paraguay,POINT (-22.402 -57.116)
focos_ams_ontem_hoje_ref.3cd16bb3-9444-3d57-a9c1-dee08ddea4d0,-57.109,-22.403,2021-07-08T17:25:00,AQUA_M-T,San Carlos,Concepción,Paraguay,POINT (-22.403 -57.109)
focos_ams_ontem_hoje_ref.aaed879a-3895-3ecb-88d5-56bc1ffcc5d9,-57.695,-22.403,2021-07-08T17:25:00,AQUA_M-T,Concepción,Concepción,Paraguay,POINT (-22.403 -57.695)
focos_ams_ontem_hoje_ref.fc29656c-e5db-3f01-b08e-771ea835c75b,-57.151,-22.407,2021-07-08T17:25:00,AQUA_M-T,Concepción,Concepción,Paraguay,POINT (-22.407 -57.151)
focos_ams_ontem_hoje_ref.5ee8337c-b08b-34ad-a7de-2e3f5ef269f4,-57.121,-22.404,2021-07-08T17:25:00,AQUA_M-T,San Carlos,Concepción,Paraguay,POINT (-22.404 -57.121)
focos_ams_ontem_hoje_ref.f15d486c-b69d-3335-86bb-dcc549f14029,-58.312,-22.407,2021-07-08T17:25:00,AQUA_M-T,Puerto Pinasco,Presidente Hayes,Paraguay,POINT (-22.407 -58.312)
focos_ams_ontem_hoje_ref.f5400514-df0e-3d4c-9000-8906529675bd,-57.681,-22.412,2021-07-08T17:25:00,AQUA_M-T,Concepción,Concepción,Paraguay,POINT (-22.412 -57.681)
focos_ams_ontem_hoje_ref.bad0c29f-e1c5-3108-8bd0-86aacdc6a294,-57.693,-22.413,2021-07-08T17:25:00,AQUA_M-T,Concepción,Concepción,Paraguay,POINT (-22.413 -57.693)
focos_ams_ontem_hoje_ref.cff678ad-1a1c-3620-af41-0b62c3d4874e,-57.887,-22.416,2021-07-08T17:25:00,AQUA_M-T,Puerto Pinasco,Presidente Hayes,Paraguay,POINT (-22.416 -57.887)
focos_ams_ontem_hoje_ref.914ccfd0-e582-3933-a45d-68be81f51b7c,-57.165,-22.43,2021-07-08T17:25:00,AQUA_M-T,San Carlos,Concepción,Paraguay,POINT (-22.43 -57.165)
focos_ams_ontem_hoje_ref.82efcf9c-fa2a-32c9-b414-98b6a35d4f5c,-57.177,-22.431,2021-07-08T17:25:00,AQUA_M-T,San Carlos,Concepción,Paraguay,POINT (-22.431 -57.177)
focos_ams_ontem_hoje_ref.25b97a81-74b1-3a1a-9637-e29236d9665c,-57.625,-22.446,2021-07-08T17:25:00,AQUA_M-T,Concepción,Concepción,Paraguay,POINT (-22.446 -57.625)
focos_ams_ontem_hoje_ref.b3e818da-b618-3554-9378-6c49da4a50ef,-57.163,-22.44,2021-07-08T17:25:00,AQUA_M-T,San Carlos,Concepción,Paraguay,POINT (-22.44 -57.163)
focos_ams_ontem_hoje_ref.aa73cbaa-6d3e-3fbc-8bef-939416e71804,-57.175,-22.441,2021-07-08T17:25:00,AQUA_M-T,San Carlos,Concepción,Paraguay,POINT (-22.441 -57.175)
focos_ams_ontem_hoje_ref.8e2a9dfb-0b9a-351c-8bd2-27d1ce35859f,-57.65,-22.449,2021-07-08T17:25:00,AQUA_M-T,Concepción,Concepción,Paraguay,POINT (-22.449 -57.65)
focos_ams_ontem_hoje_ref.95f4573c-9692-37b8-9421-62b27d6d80ae,-57.737,-22.47,2021-07-08T17:25:00,AQUA_M-T,Concepción,Concepción,Paraguay,POINT (-22.47 -57.737)
focos_ams_ontem_hoje_ref.9ff8eae0-f5ca-315a-8f19-a0fff995284d,-57.749,-22.472,2021-07-08T17:25:00,AQUA_M-T,Concepción,Concepción,Paraguay,POINT (-22.472 -57.749)
focos_ams_ontem_hoje_ref.80d21318-11de-3dc5-9c59-096ba47be420,-57.762,-22.473,2021-07-08T17:25:00,AQUA_M-T,Concepción,Concepción,Paraguay,POINT (-22.473 -57.762)
focos_ams_ontem_hoje_ref.4dce67c7-9fb9-3995-af50-e1df76d9452a,-57.775,-22.475,2021-07-08T17:25:00,AQUA_M-T,Concepción,Concepción,Paraguay,POINT (-22.475 -57.775)
focos_ams_ontem_hoje_ref.d881ae00-2ea1-39a3-b031-67cd0a8500f0,-57.767,-22.483,2021-07-08T17:25:00,AQUA_M-T,Concepción,Concepción,Paraguay,POINT (-22.483 -57.767)
focos_ams_ontem_hoje_ref.531e936b-cfa1-36a5-a33f-fc66eb428779,-57.754,-22.481,2021-07-08T17:25:00,AQUA_M-T,Concepción,Concepción,Paraguay,POINT (-22.481 -57.754)
focos_ams_ontem_hoje_ref.6ccf85dd-c3e9-30d5-bf08-e84486f768df,-57.76,-22.484,2021-07-08T17:25:00,AQUA_M-T,Concepción,Concepción,Paraguay,POINT (-22.484 -57.76)
focos_ams_ontem_hoje_ref.46f211db-ffa4-3a22-9f05-2a7a96e909f3,-57.773,-22.485,2021-07-08T17:25:00,AQUA_M-T,Concepción,Concepción,Paraguay,POINT (-22.485 -57.773)
focos_ams_ontem_hoje_ref.18344688-fd1d-3458-949d-144f6ef7bae6,-57.123,-22.516,2021-07-08T17:25:00,AQUA_M-T,Concepción,Concepción,Paraguay,POINT (-22.516 -57.123)
focos_ams_ontem_hoje_ref.5ccb19e3-55d9-344e-8bef-67f9020f1546,-57.457,-22.517,2021-07-08T17:25:00,AQUA_M-T,Concepción,Concepción,Paraguay,POINT (-22.517 -57.457)
focos_ams_ontem_hoje_ref.be368069-c099-33ff-9cd1-3bb35abed169,-57.891,-22.529,2021-07-08T17:25:00,AQUA_M-T,Puerto Pinasco,Presidente Hayes,Paraguay,POINT (-22.529 -57.891)
focos_ams_ontem_hoje_ref.16c14980-2969-362e-86e3-04584d8498a6,-57.89,-22.539,2021-07-08T17:25:00,AQUA_M-T,Puerto Pinasco,Presidente Hayes,Paraguay,POINT (-22.539 -57.89)
focos_ams_ontem_hoje_ref.803e9cf7-159b-3848-a5b5-214b76a49e00,-57.347,-22.553,2021-07-08T17:25:00,AQUA_M-T,San Carlos,Concepción,Paraguay,POINT (-22.553 -57.347)
focos_ams_ontem_hoje_ref.8acd0032-3fed-3cde-bae9-75d81750881c,-57.433,-22.554,2021-07-08T17:25:00,AQUA_M-T,Concepción,Concepción,Paraguay,POINT (-22.554 -57.433)
focos_ams_ontem_hoje_ref.bc9f8873-bfa5-3977-8d1c-759ea2cb72c5,-55.907,-22.543,2021-07-08T17:25:00,AQUA_M-T,Pedro Juan Caballero,Amambay,Paraguay,POINT (-22.543 -55.907)
focos_ams_ontem_hoje_ref.f3cf1750-fc02-3e72-b475-8e75852ae0c6,-57.421,-22.552,2021-07-08T17:25:00,AQUA_M-T,Concepción,Concepción,Paraguay,POINT (-22.552 -57.421)
focos_ams_ontem_hoje_ref.4c9d3e91-7b44-3c93-b63b-2e7830729399,-55.917,-22.544,2021-07-08T17:25:00,AQUA_M-T,Pedro Juan Caballero,Amambay,Paraguay,POINT (-22.544 -55.917)
focos_ams_ontem_hoje_ref.f3a385c1-5f8d-3d18-9a36-bc6ded507c1a,-55.905,-22.552,2021-07-08T17:25:00,AQUA_M-T,Pedro Juan Caballero,Amambay,Paraguay,POINT (-22.552 -55.905)
focos_ams_ontem_hoje_ref.641b1d83-60a6-3994-9b9f-efd73922c23c,-57.458,-22.557,2021-07-08T17:25:00,AQUA_M-T,Concepción,Concepción,Paraguay,POINT (-22.557 -57.458)
focos_ams_ontem_hoje_ref.216f1e58-6c13-3c09-ae29-1295c0c1da2f,-57.359,-22.555,2021-07-08T17:25:00,AQUA_M-T,Concepción,Concepción,Paraguay,POINT (-22.555 -57.359)
focos_ams_ontem_hoje_ref.6b1ce30f-c3f2-34d1-8183-99f17ba8e290,-57.47,-22.558,2021-07-08T17:25:00,AQUA_M-T,Concepción,Concepción,Paraguay,POINT (-22.558 -57.47)
focos_ams_ontem_hoje_ref.758a9400-5cbb-3f03-8749-8cfe7fda94a7,-56.173,-22.559,2021-07-08T17:25:00,AQUA_M-T,Pedro Juan Caballero,Amambay,Paraguay,POINT (-22.559 -56.173)
focos_ams_ontem_hoje_ref.39a10404-ae15-3964-89cf-95289fcc5892,-57.334,-22.562,2021-07-08T17:25:00,AQUA_M-T,Concepción,Concepción,Paraguay,POINT (-22.562 -57.334)
focos_ams_ontem_hoje_ref.a4058afc-00fc-3df4-a5a4-562cc32cd5ec,-57.345,-22.563,2021-07-08T17:25:00,AQUA_M-T,Concepción,Concepción,Paraguay,POINT (-22.563 -57.345)
focos_ams_ontem_hoje_ref.ff2fdea2-0395-31e8-b6e3-b3b9bb850dcc,-57.432,-22.564,2021-07-08T17:25:00,AQUA_M-T,Concepción,Concepción,Paraguay,POINT (-22.564 -57.432)
focos_ams_ontem_hoje_ref.54c47af5-7321-33f8-83fc-7883ff4df57f,-57.456,-22.567,2021-07-08T17:25:00,AQUA_M-T,Concepción,Concepción,Paraguay,POINT (-22.567 -57.456)
focos_ams_ontem_hoje_ref.cedc6735-793b-33fc-bf1e-28f009c0b34f,-57.244,-22.591,2021-07-08T17:25:00,AQUA_M-T,Concepción,Concepción,Paraguay,POINT (-22.591 -57.244)
focos_ams_ontem_hoje_ref.4cd4ac43-f7a4-3994-8d80-e572331198b0,-57.245,-22.581,2021-07-08T17:25:00,AQUA_M-T,Concepción,Concepción,Paraguay,POINT (-22.581 -57.245)
focos_ams_ontem_hoje_ref.c4ccc181-74d1-37f7-a362-6e41a8943c57,-55.825,-22.589,2021-07-08T17:25:00,AQUA_M-T,Pedro Juan Caballero,Amambay,Paraguay,POINT (-22.589 -55.825)
focos_ams_ontem_hoje_ref.517be281-4e95-38bb-a2e3-d712a72b5e22,-56.88,-22.597,2021-07-08T17:25:00,AQUA_M-T,Concepción,Concepción,Paraguay,POINT (-22.597 -56.88)
focos_ams_ontem_hoje_ref.8c95bebe-5651-39ca-8ba0-c7cf7b96bdf4,-55.824,-22.598,2021-07-08T17:25:00,AQUA_M-T,Pedro Juan Caballero,Amambay,Paraguay,POINT (-22.598 -55.824)
focos_ams_ontem_hoje_ref.912f6b05-5f52-3415-9b87-95b9182e1111,-56.25,-22.626,2021-07-08T17:25:00,AQUA_M-T,Bella Vista,Amambay,Paraguay,POINT (-22.626 -56.25)
focos_ams_ontem_hoje_ref.61d6dd76-5332-37bb-a9f5-50d192f529f5,-56.261,-22.628,2021-07-08T17:25:00,AQUA_M-T,Bella Vista,Amambay,Paraguay,POINT (-22.628 -56.261)
focos_ams_ontem_hoje_ref.44cc699b-5141-3cb4-a42a-8b4fd53aa058,-57.279,-22.637,2021-07-08T17:25:00,AQUA_M-T,Concepción,Concepción,Paraguay,POINT (-22.637 -57.279)
focos_ams_ontem_hoje_ref.e385998b-afaa-3239-97f3-0bc7bc469c7c,-57.315,-22.642,2021-07-08T17:25:00,AQUA_M-T,Concepción,Concepción,Paraguay,POINT (-22.642 -57.315)
focos_ams_ontem_hoje_ref.8a1e1cbf-762c-3387-8897-784b89d497d5,-57.303,-22.64,2021-07-08T17:25:00,AQUA_M-T,Concepción,Concepción,Paraguay,POINT (-22.64 -57.303)
focos_ams_ontem_hoje_ref.d00b9934-a600-3533-8647-0d3eda3fcbd8,-57.664,-22.663,2021-07-08T17:25:00,AQUA_M-T,Concepción,Concepción,Paraguay,POINT (-22.663 -57.664)
focos_ams_ontem_hoje_ref.7921061c-c394-3843-bc3a-7ecb7e43865a,-57.819,-22.671,2021-07-08T17:25:00,AQUA_M-T,Concepción,Concepción,Paraguay,POINT (-22.671 -57.819)
focos_ams_ontem_hoje_ref.c5b24196-2872-35fb-a576-b7b2748d50c2,-57.832,-22.673,2021-07-08T17:25:00,AQUA_M-T,Concepción,Concepción,Paraguay,POINT (-22.673 -57.832)
focos_ams_ontem_hoje_ref.68eb4408-a4f7-325c-bcfc-e2ed93f5b626,-57.676,-22.675,2021-07-08T17:25:00,AQUA_M-T,Concepción,Concepción,Paraguay,POINT (-22.675 -57.676)
focos_ams_ontem_hoje_ref.1a728107-b388-3a77-86f6-4bbc0884ac78,-57.826,-22.675,2021-07-08T17:25:00,AQUA_M-T,Concepción,Concepción,Paraguay,POINT (-22.675 -57.826)
focos_ams_ontem_hoje_ref.1b05dcf7-10dd-360a-be10-881a29c7e1d0,-47.312,-6.496,2021-07-08T17:25:00,AQUA_M-T,PORTO FRANCO,MARANHÃO,Brasil,POINT (-6.496 -47.312)
focos_ams_ontem_hoje_ref.648f463f-de45-30b3-bedf-450de1584c92,-47.209,-7.246,2021-07-08T17:25:00,AQUA_M-T,CAROLINA,MARANHÃO,Brasil,POINT (-7.246 -47.209)
focos_ams_ontem_hoje_ref.65c594da-9775-3bca-97c1-8f2e5bd5ce5f,-47.25,-7.253,2021-07-08T17:25:00,AQUA_M-T,CAROLINA,MARANHÃO,Brasil,POINT (-7.253 -47.25)
focos_ams_ontem_hoje_ref.fa1e80ee-7467-3d98-bf8b-1c5d99ffefbf,-47.215,-7.262,2021-07-08T17:25:00,AQUA_M-T,CAROLINA,MARANHÃO,Brasil,POINT (-7.262 -47.215)
focos_ams_ontem_hoje_ref.f7f5f41e-675d-3484-9eb9-6498b8511673,-49.789,-7.639,2021-07-08T17:25:00,AQUA_M-T,FLORESTA DO ARAGUAIA,PARÁ,Brasil,POINT (-7.639 -49.789)
focos_ams_ontem_hoje_ref.7cbdbf9a-9a62-31db-b861-b39e96000678,-55.157,-7.663,2021-07-08T17:25:00,AQUA_M-T,NOVO PROGRESSO,PARÁ,Brasil,POINT (-7.663 -55.157)
focos_ams_ontem_hoje_ref.fb809d60-f69c-3292-b3ec-6d8ef1e06bfa,-61.732,-7.97,2021-07-08T17:25:00,AQUA_M-T,MANICORÉ,AMAZONAS,Brasil,POINT (-7.97 -61.732)
focos_ams_ontem_hoje_ref.24fc5161-5b76-38bc-8c5f-4cddb37827ff,-55.167,-7.664,2021-07-08T17:25:00,AQUA_M-T,NOVO PROGRESSO,PARÁ,Brasil,POINT (-7.664 -55.167)
focos_ams_ontem_hoje_ref.17c4bdaf-13a8-36cb-942b-a35406985268,-49.699,-8.035,2021-07-08T17:25:00,AQUA_M-T,CONCEIÇÃO DO ARAGUAIA,PARÁ,Brasil,POINT (-8.035 -49.699)
focos_ams_ontem_hoje_ref.2ded806f-0a1c-38e3-9492-34648a1ac626,-49.723,-8.039,2021-07-08T17:25:00,AQUA_M-T,CONCEIÇÃO DO ARAGUAIA,PARÁ,Brasil,POINT (-8.039 -49.723)
focos_ams_ontem_hoje_ref.7b273809-0a7f-3ca3-ae6d-d09109c7240e,-49.715,-8.042,2021-07-08T17:25:00,AQUA_M-T,CONCEIÇÃO DO ARAGUAIA,PARÁ,Brasil,POINT (-8.042 -49.715)
focos_ams_ontem_hoje_ref.cd8a72b0-b05b-31a9-968f-8cfbbc2b277b,-55.186,-8.578,2021-07-08T17:25:00,AQUA_M-T,NOVO PROGRESSO,PARÁ,Brasil,POINT (-8.578 -55.186)
focos_ams_ontem_hoje_ref.f5ccada2-03b9-31b6-82ed-06b5219373e3,-63.592,-8.911,2021-07-08T17:25:00,AQUA_M-T,CANDEIAS DO JAMARI,RONDÔNIA,Brasil,POINT (-8.911 -63.592)
focos_ams_ontem_hoje_ref.5428fc0c-32be-388e-a8ee-9095b60b87ef,-63.571,-9.13,2021-07-08T17:25:00,AQUA_M-T,CANDEIAS DO JAMARI,RONDÔNIA,Brasil,POINT (-9.13 -63.571)
focos_ams_ontem_hoje_ref.6edbacac-6a02-345a-9cf7-afc330e93915,-63.409,-9.319,2021-07-08T17:25:00,AQUA_M-T,CANDEIAS DO JAMARI,RONDÔNIA,Brasil,POINT (-9.319 -63.409)
focos_ams_ontem_hoje_ref.155b39c8-f381-3a1f-9079-44f08e8f526b,-47.905,-9.186,2021-07-08T17:25:00,AQUA_M-T,PEDRO AFONSO,TOCANTINS,Brasil,POINT (-9.186 -47.905)
focos_ams_ontem_hoje_ref.8d104f49-d708-331c-8f6f-63ceaa231d4c,-47.895,-9.194,2021-07-08T17:25:00,AQUA_M-T,PEDRO AFONSO,TOCANTINS,Brasil,POINT (-9.194 -47.895)
focos_ams_ontem_hoje_ref.1e24de64-7d14-32e1-932d-6be3aea17024,-63.416,-9.319,2021-07-08T17:25:00,AQUA_M-T,CANDEIAS DO JAMARI,RONDÔNIA,Brasil,POINT (-9.319 -63.416)
focos_ams_ontem_hoje_ref.09ee5f58-3d4b-355e-834d-9120634b0981,-63.429,-9.321,2021-07-08T17:25:00,AQUA_M-T,CANDEIAS DO JAMARI,RONDÔNIA,Brasil,POINT (-9.321 -63.429)
focos_ams_ontem_hoje_ref.588c57f8-8694-32f9-87f1-44e1be4c3da8,-64.626,-9.435,2021-07-08T17:25:00,AQUA_M-T,PORTO VELHO,RONDÔNIA,Brasil,POINT (-9.435 -64.626)
focos_ams_ontem_hoje_ref.62ef1574-057f-3e19-8d81-15db6bed4e23,-57.674,-9.454,2021-07-08T17:25:00,AQUA_M-T,APIACÁS,MATO GROSSO,Brasil,POINT (-9.454 -57.674)
focos_ams_ontem_hoje_ref.d1bd8444-a58d-3ea5-a562-28fb373eafce,-58.194,-9.481,2021-07-08T17:25:00,AQUA_M-T,NOVA BANDEIRANTES,MATO GROSSO,Brasil,POINT (-9.481 -58.194)
focos_ams_ontem_hoje_ref.1867f4d7-5109-395d-b039-f34d9ce50f09,-57.726,-9.545,2021-07-08T17:25:00,AQUA_M-T,APIACÁS,MATO GROSSO,Brasil,POINT (-9.545 -57.726)
focos_ams_ontem_hoje_ref.7035bf2a-703b-3e01-a5e7-5c3fdd690d6b,-58.203,-9.482,2021-07-08T17:25:00,AQUA_M-T,NOVA BANDEIRANTES,MATO GROSSO,Brasil,POINT (-9.482 -58.203)
focos_ams_ontem_hoje_ref.6ca42553-4f17-317f-9a31-95c0773538a7,-57.735,-9.546,2021-07-08T17:25:00,AQUA_M-T,NOVA BANDEIRANTES,MATO GROSSO,Brasil,POINT (-9.546 -57.735)
focos_ams_ontem_hoje_ref.44fde040-b439-3e5c-b6d1-904a1d994633,-55.131,-9.756,2021-07-08T17:25:00,AQUA_M-T,NOVO MUNDO,MATO GROSSO,Brasil,POINT (-9.756 -55.131)
focos_ams_ontem_hoje_ref.1dd28cf0-c70a-3878-8dba-649646961a2e,-55.381,-9.765,2021-07-08T17:25:00,AQUA_M-T,NOVO MUNDO,MATO GROSSO,Brasil,POINT (-9.765 -55.381)
focos_ams_ontem_hoje_ref.23f3e20b-87b3-35f4-aebf-fb60c22f53e7,-57.882,-9.768,2021-07-08T17:25:00,AQUA_M-T,NOVA BANDEIRANTES,MATO GROSSO,Brasil,POINT (-9.768 -57.882)
focos_ams_ontem_hoje_ref.de1b3420-9f33-3aae-b1ed-8324c2ae4d04,-57.88,-9.777,2021-07-08T17:25:00,AQUA_M-T,NOVA BANDEIRANTES,MATO GROSSO,Brasil,POINT (-9.777 -57.88)
focos_ams_ontem_hoje_ref.522e1772-d8a0-33a5-896e-b61ccb41ffd7,-55.784,-22.71,2021-07-08T17:25:00,AQUA_M-T,Pedro Juan Caballero,Amambay,Paraguay,POINT (-22.71 -55.784)
focos_ams_ontem_hoje_ref.6d35ab41-df86-3d1c-8ae0-dcc596b078de,-55.794,-22.712,2021-07-08T17:25:00,AQUA_M-T,Pedro Juan Caballero,Amambay,Paraguay,POINT (-22.712 -55.794)
focos_ams_ontem_hoje_ref.159fd05a-750f-368f-95ce-d5d023e43129,-56.469,-22.747,2021-07-08T17:25:00,AQUA_M-T,Bella Vista,Amambay,Paraguay,POINT (-22.747 -56.469)
focos_ams_ontem_hoje_ref.099d2602-0c5f-35aa-9eb2-5df85e9d5f48,-56.882,-22.741,2021-07-08T17:25:00,AQUA_M-T,Concepción,Concepción,Paraguay,POINT (-22.741 -56.882)
focos_ams_ontem_hoje_ref.108213ae-c9eb-3223-9e0c-c43f056f600d,-56.458,-22.746,2021-07-08T17:25:00,AQUA_M-T,Bella Vista,Amambay,Paraguay,POINT (-22.746 -56.458)
focos_ams_ontem_hoje_ref.1ac165fb-b7f9-394b-87c2-8d3d8d67f0aa,-56.881,-22.75,2021-07-08T17:25:00,AQUA_M-T,Concepción,Concepción,Paraguay,POINT (-22.75 -56.881)
focos_ams_ontem_hoje_ref.5e818031-2eea-35dd-bb4e-8d48dcd374e2,-57.416,-22.765,2021-07-08T17:25:00,AQUA_M-T,Concepción,Concepción,Paraguay,POINT (-22.765 -57.416)
focos_ams_ontem_hoje_ref.58a6cd26-2b43-3a36-9834-0b1b33abe094,-57.429,-22.767,2021-07-08T17:25:00,AQUA_M-T,Concepción,Concepción,Paraguay,POINT (-22.767 -57.429)
focos_ams_ontem_hoje_ref.9c2beb48-6192-391e-aefc-d5d99e0009b6,-57.427,-22.777,2021-07-08T17:25:00,AQUA_M-T,Concepción,Concepción,Paraguay,POINT (-22.777 -57.427)
focos_ams_ontem_hoje_ref.dd693c60-3718-32ec-ab42-bb0378d3e2df,-57.426,-22.787,2021-07-08T17:25:00,AQUA_M-T,Concepción,Concepción,Paraguay,POINT (-22.787 -57.426)
focos_ams_ontem_hoje_ref.eed5c71d-1801-3785-a7aa-1bcab3f4a67f,-57.413,-22.785,2021-07-08T17:25:00,AQUA_M-T,Concepción,Concepción,Paraguay,POINT (-22.785 -57.413)
focos_ams_ontem_hoje_ref.31393d42-880f-3e0c-8552-3224f765fc42,-57.412,-22.795,2021-07-08T17:25:00,AQUA_M-T,Concepción,Concepción,Paraguay,POINT (-22.795 -57.412)
focos_ams_ontem_hoje_ref.98db7ac6-5550-3723-af81-b52f01b360a3,-57.424,-22.797,2021-07-08T17:25:00,AQUA_M-T,Concepción,Concepción,Paraguay,POINT (-22.797 -57.424)
focos_ams_ontem_hoje_ref.9de00ecb-b924-3417-afc3-ce16604b64e5,-57.437,-22.799,2021-07-08T17:25:00,AQUA_M-T,Concepción,Concepción,Paraguay,POINT (-22.799 -57.437)
focos_ams_ontem_hoje_ref.a6031acd-70a8-389c-a923-d30facad4282,-57.449,-22.8,2021-07-08T17:25:00,AQUA_M-T,Concepción,Concepción,Paraguay,POINT (-22.8 -57.449)
focos_ams_ontem_hoje_ref.1ccaa6e3-c309-3af7-8935-10ecfc9da30f,-57.843,-22.839,2021-07-08T17:25:00,AQUA_M-T,Puerto Pinasco,Presidente Hayes,Paraguay,POINT (-22.839 -57.843)
focos_ams_ontem_hoje_ref.8168453e-a540-377a-b432-7df10a8454e9,-57.856,-22.84,2021-07-08T17:25:00,AQUA_M-T,Puerto Pinasco,Presidente Hayes,Paraguay,POINT (-22.84 -57.856)
focos_ams_ontem_hoje_ref.691ac323-c042-3c87-979c-e084267e9957,-56.623,-22.888,2021-07-08T17:25:00,AQUA_M-T,Bella Vista,Amambay,Paraguay,POINT (-22.888 -56.623)
focos_ams_ontem_hoje_ref.38f6a6ab-5a42-3838-92c3-cbdfb968a3b5,-57.045,-22.841,2021-07-08T17:25:00,AQUA_M-T,Concepción,Concepción,Paraguay,POINT (-22.841 -57.045)
focos_ams_ontem_hoje_ref.c484e80a-bdbe-3913-9374-31a107345ce5,-56.902,-22.884,2021-07-08T17:25:00,AQUA_M-T,Concepción,Concepción,Paraguay,POINT (-22.884 -56.902)
focos_ams_ontem_hoje_ref.f39761fc-3e2f-347f-92d8-1a0b6ec752a3,-56.627,-22.892,2021-07-08T17:25:00,AQUA_M-T,Yby Yaù,Concepción,Paraguay,POINT (-22.892 -56.627)
focos_ams_ontem_hoje_ref.3ab53b68-65dd-33ce-89fe-a671cbf8bd80,-57.681,-22.921,2021-07-08T17:25:00,AQUA_M-T,Concepción,Concepción,Paraguay,POINT (-22.921 -57.681)
focos_ams_ontem_hoje_ref.5c2129e8-22cb-3604-aa34-94dbab54877f,-57.693,-22.922,2021-07-08T17:25:00,AQUA_M-T,Concepción,Concepción,Paraguay,POINT (-22.922 -57.693)
focos_ams_ontem_hoje_ref.d43ae788-08dd-3b86-8e08-afa3173a9ed0,-57.737,-22.945,2021-07-08T17:25:00,AQUA_M-T,Concepción,Concepción,Paraguay,POINT (-22.945 -57.737)
focos_ams_ontem_hoje_ref.6ad267af-174b-3595-8278-cb7d71b20ce1,-57.735,-22.956,2021-07-08T17:25:00,AQUA_M-T,Concepción,Concepción,Paraguay,POINT (-22.956 -57.735)
focos_ams_ontem_hoje_ref.191fbb26-25c1-3433-8dd0-89352c25b437,-56.01,-22.961,2021-07-08T17:25:00,AQUA_M-T,Pedro Juan Caballero,Amambay,Paraguay,POINT (-22.961 -56.01)
focos_ams_ontem_hoje_ref.8fc93bd0-d6b4-38a3-ba0c-43bb38c06034,-52.696,-25.059,2021-07-08T17:25:00,AQUA_M-T,DIAMANTE DO SUL,PARANÁ,Brasil,POINT (-25.059 -52.696)
focos_ams_ontem_hoje_ref.b77a5ed6-ed60-3325-8cbe-33595a909dee,-57.762,-23.538,2021-07-08T17:25:00,AQUA_M-T,Pozo Colorado,Presidente Hayes,Paraguay,POINT (-23.538 -57.762)
focos_ams_ontem_hoje_ref.8472b6db-4669-3037-b86c-0aecbe202ba0,-57.764,-23.528,2021-07-08T17:25:00,AQUA_M-T,Pozo Colorado,Presidente Hayes,Paraguay,POINT (-23.528 -57.764)
focos_ams_ontem_hoje_ref.cc9d328b-c82f-3b6a-90aa-9ffc60caf96a,-57.841,-23.558,2021-07-08T17:25:00,AQUA_M-T,Pozo Colorado,Presidente Hayes,Paraguay,POINT (-23.558 -57.841)
focos_ams_ontem_hoje_ref.ab3b2aeb-3a88-3b15-b952-fa85128fbc6a,-56.774,-23.692,2021-07-08T17:25:00,AQUA_M-T,Tacuatí,San Pedro,Paraguay,POINT (-23.692 -56.774)
focos_ams_ontem_hoje_ref.06d83676-566b-30bc-9993-959a34be01cb,-56.065,-23.711,2021-07-08T17:25:00,AQUA_M-T,Nueva Germania,San Pedro,Paraguay,POINT (-23.711 -56.065)
focos_ams_ontem_hoje_ref.d32dc762-3236-38a6-9576-a954424fa139,-57.748,-22.957,2021-07-08T17:25:00,AQUA_M-T,Concepción,Concepción,Paraguay,POINT (-22.957 -57.748)
focos_ams_ontem_hoje_ref.909eb652-6f19-3501-8dba-c90458de094b,-57.277,-22.961,2021-07-08T17:25:00,AQUA_M-T,Concepción,Concepción,Paraguay,POINT (-22.961 -57.277)
focos_ams_ontem_hoje_ref.01ae9df8-733f-3934-9a3c-3750067cb559,-55.829,-22.982,2021-07-08T17:25:00,AQUA_M-T,Pedro Juan Caballero,Amambay,Paraguay,POINT (-22.982 -55.829)
focos_ams_ontem_hoje_ref.4376acf9-d146-3555-88d7-c83e60947586,-55.839,-22.983,2021-07-08T17:25:00,AQUA_M-T,Pedro Juan Caballero,Amambay,Paraguay,POINT (-22.983 -55.839)
focos_ams_ontem_hoje_ref.ae98e814-cc6e-3096-893d-49b4f37f549a,-56.302,-22.99,2021-07-08T17:25:00,AQUA_M-T,Yby Yaù,Concepción,Paraguay,POINT (-22.99 -56.302)
focos_ams_ontem_hoje_ref.a1f96a7c-bc23-3aca-b154-d3d6f44a1810,-56.313,-22.991,2021-07-08T17:25:00,AQUA_M-T,Yby Yaù,Concepción,Paraguay,POINT (-22.991 -56.313)
focos_ams_ontem_hoje_ref.e13767f5-1a09-3b75-9e56-e95c6405a5c1,-56.093,-22.992,2021-07-08T17:25:00,AQUA_M-T,Pedro Juan Caballero,Amambay,Paraguay,POINT (-22.992 -56.093)
focos_ams_ontem_hoje_ref.1be27b85-a2bd-39cc-9ce2-6e9324c41770,-56.354,-23.016,2021-07-08T17:25:00,AQUA_M-T,Yby Yaù,Concepción,Paraguay,POINT (-23.016 -56.354)
focos_ams_ontem_hoje_ref.a8d00f79-a847-38ee-a4f0-8497de768f57,-58.567,-23.075,2021-07-08T17:25:00,AQUA_M-T,Pozo Colorado,Presidente Hayes,Paraguay,POINT (-23.075 -58.567)
focos_ams_ontem_hoje_ref.b6a43a76-ab02-38ae-b83b-28e96025c16e,-58.581,-23.076,2021-07-08T17:25:00,AQUA_M-T,Pozo Colorado,Presidente Hayes,Paraguay,POINT (-23.076 -58.581)
focos_ams_ontem_hoje_ref.73b7ea01-8a9a-3d9d-8302-cbb2a0aff83a,-57.754,-23.01,2021-07-08T17:25:00,AQUA_M-T,Concepción,Concepción,Paraguay,POINT (-23.01 -57.754)
focos_ams_ontem_hoje_ref.d0d327af-b89e-34e6-b3cd-bb1089be5517,-58.58,-23.087,2021-07-08T17:25:00,AQUA_M-T,Pozo Colorado,Presidente Hayes,Paraguay,POINT (-23.087 -58.58)
focos_ams_ontem_hoje_ref.63d7c1c3-2129-3076-a305-1be34a8ac035,-58.683,-23.157,2021-07-08T17:25:00,AQUA_M-T,Pozo Colorado,Presidente Hayes,Paraguay,POINT (-23.157 -58.683)
focos_ams_ontem_hoje_ref.1f5463e7-3dab-3ce4-8bbd-c1d46cacaee7,-56.291,-23.201,2021-07-08T17:25:00,AQUA_M-T,Yby Yaù,Concepción,Paraguay,POINT (-23.201 -56.291)
focos_ams_ontem_hoje_ref.e17f0ef4-c30b-3f61-9873-fcd13a159e08,-55.672,-23.255,2021-07-08T17:25:00,AQUA_M-T,Capitán Bado,Amambay,Paraguay,POINT (-23.255 -55.672)
focos_ams_ontem_hoje_ref.b5d62bb4-a9f4-3786-8112-172a4d9222cb,-61.627,-23.398,2021-07-08T17:25:00,AQUA_M-T,Bermejo,Formosa,Argentina,POINT (-23.398 -61.627)
focos_ams_ontem_hoje_ref.69d98f66-f15d-3a47-b6e0-aa19f005904e,-57.171,-23.386,2021-07-08T17:25:00,AQUA_M-T,Horqueta,Concepción,Paraguay,POINT (-23.386 -57.171)
focos_ams_ontem_hoje_ref.647719e5-208e-3187-bc36-18c3699d0389,-61.651,-23.401,2021-07-08T17:25:00,AQUA_M-T,Bermejo,Formosa,Argentina,POINT (-23.401 -61.651)
focos_ams_ontem_hoje_ref.8392d5f5-54a5-3d64-9968-1ef459dfdc4e,-57.614,-23.409,2021-07-08T17:25:00,AQUA_M-T,Pozo Colorado,Presidente Hayes,Paraguay,POINT (-23.409 -57.614)
focos_ams_ontem_hoje_ref.f2b09542-2f1c-3317-acfe-da06f9a70444,-57.627,-23.41,2021-07-08T17:25:00,AQUA_M-T,Pozo Colorado,Presidente Hayes,Paraguay,POINT (-23.41 -57.627)
focos_ams_ontem_hoje_ref.0b062ff9-f85b-31ed-b049-068ecad3544e,-56.665,-23.442,2021-07-08T17:25:00,AQUA_M-T,Tacuatí,San Pedro,Paraguay,POINT (-23.442 -56.665)
focos_ams_ontem_hoje_ref.42a02035-d980-342b-98f1-0030c054a1cf,-58.857,-23.461,2021-07-08T17:25:00,AQUA_M-T,Pozo Colorado,Presidente Hayes,Paraguay,POINT (-23.461 -58.857)
focos_ams_ontem_hoje_ref.52f38c69-4752-3dd3-9662-0f17d7252e60,-57.489,-23.516,2021-07-08T17:25:00,AQUA_M-T,Pozo Colorado,Presidente Hayes,Paraguay,POINT (-23.516 -57.489)
focos_ams_ontem_hoje_ref.f8ac64ef-961b-355b-9fe9-34b31efca079,-52.723,-22.651,2021-07-08T17:25:00,AQUA_M-T,TERRA RICA,PARANÁ,Brasil,POINT (-22.651 -52.723)
focos_ams_ontem_hoje_ref.e0605bb4-a137-364d-93e4-c0750d7e6f90,-57.488,-23.526,2021-07-08T17:25:00,AQUA_M-T,Pozo Colorado,Presidente Hayes,Paraguay,POINT (-23.526 -57.488)
focos_ams_ontem_hoje_ref.5e9cde20-6422-3bdc-a3b9-1d30fd6addec,-57.5,-23.527,2021-07-08T17:25:00,AQUA_M-T,Pozo Colorado,Presidente Hayes,Paraguay,POINT (-23.527 -57.5)
focos_ams_ontem_hoje_ref.e43f6b78-3599-3570-a43f-e5c762b041ac,-52.733,-22.652,2021-07-08T17:25:00,AQUA_M-T,TERRA RICA,PARANÁ,Brasil,POINT (-22.652 -52.733)
focos_ams_ontem_hoje_ref.bc14163f-cb4d-32b6-a2eb-b369e50a1eb4,-47.697,-22.695,2021-07-08T17:25:00,AQUA_M-T,PIRACICABA,SÃO PAULO,Brasil,POINT (-22.695 -47.697)
focos_ams_ontem_hoje_ref.7e9a0654-c351-38fb-9642-6b3a4cad77d6,-52.105,-22.759,2021-07-08T17:25:00,AQUA_M-T,PARANACITY,PARANÁ,Brasil,POINT (-22.759 -52.105)
focos_ams_ontem_hoje_ref.85a80cf9-6955-35f6-893d-b206eefb069c,-52.092,-23.024,2021-07-08T17:25:00,AQUA_M-T,CRUZEIRO DO SUL,PARANÁ,Brasil,POINT (-23.024 -52.092)
focos_ams_ontem_hoje_ref.da42184f-fafb-3c0f-b8d0-37e487285a89,-52.102,-23.026,2021-07-08T17:25:00,AQUA_M-T,CRUZEIRO DO SUL,PARANÁ,Brasil,POINT (-23.026 -52.102)
focos_ams_ontem_hoje_ref.e29754f4-96c6-3ce3-a862-4af61c42c9ca,-47.135,-23.314,2021-07-08T17:25:00,AQUA_M-T,CABREÚVA,SÃO PAULO,Brasil,POINT (-23.314 -47.135)
focos_ams_ontem_hoje_ref.f006ddb7-475b-3636-a2ad-ee96ff3671d2,-52.511,-23.127,2021-07-08T17:25:00,AQUA_M-T,PARANAVAÍ,PARANÁ,Brasil,POINT (-23.127 -52.511)
focos_ams_ontem_hoje_ref.f619484c-22b7-3fbb-b9d5-631d3f92c205,-47.578,-23.519,2021-07-08T17:25:00,AQUA_M-T,ARAÇOIABA DA SERRA,SÃO PAULO,Brasil,POINT (-23.519 -47.578)
focos_ams_ontem_hoje_ref.24ef7fdd-18d7-3b66-91e7-edba259ccc5b,-52.622,-23.722,2021-07-08T17:25:00,AQUA_M-T,CIANORTE,PARANÁ,Brasil,POINT (-23.722 -52.622)
focos_ams_ontem_hoje_ref.b844f751-012c-3c08-97b7-c3ac9429369c,-52.593,-23.848,2021-07-08T17:25:00,AQUA_M-T,CIANORTE,PARANÁ,Brasil,POINT (-23.848 -52.593)
focos_ams_ontem_hoje_ref.024c5186-500e-3794-918f-2c5973f0fa7a,-50.886,-24.563,2021-07-08T17:25:00,AQUA_M-T,RESERVA,PARANÁ,Brasil,POINT (-24.563 -50.886)
focos_ams_ontem_hoje_ref.25b353bd-3947-3d80-98c8-e520eecf3ab6,-51.126,-24.57,2021-07-08T17:25:00,AQUA_M-T,RESERVA,PARANÁ,Brasil,POINT (-24.57 -51.126)
focos_ams_ontem_hoje_ref.e92824ee-ad2e-36bd-815d-880f5ebf411b,-51.137,-24.572,2021-07-08T17:25:00,AQUA_M-T,RESERVA,PARANÁ,Brasil,POINT (-24.572 -51.137)
focos_ams_ontem_hoje_ref.e2d2d7e1-5c35-3b17-b11b-07df57e7e02e,-52.102,-24.694,2021-07-08T17:25:00,AQUA_M-T,MATO RICO,PARANÁ,Brasil,POINT (-24.694 -52.102)
focos_ams_ontem_hoje_ref.ed0f7b3c-433d-3a2e-957e-13dfb10eb4f5,-51.361,-24.854,2021-07-08T17:25:00,AQUA_M-T,PRUDENTÓPOLIS,PARANÁ,Brasil,POINT (-24.854 -51.361)
focos_ams_ontem_hoje_ref.0170286d-f79c-33fa-8320-01ae27b0b5b8,-52.112,-24.695,2021-07-08T17:25:00,AQUA_M-T,MATO RICO,PARANÁ,Brasil,POINT (-24.695 -52.112)
focos_ams_ontem_hoje_ref.3eea70cc-af4a-3181-854e-f00754ef3e04,-51.874,-24.731,2021-07-08T17:25:00,AQUA_M-T,PITANGA,PARANÁ,Brasil,POINT (-24.731 -51.874)
focos_ams_ontem_hoje_ref.a82a1c77-d631-3f72-b811-0973929bba0b,-51.372,-24.856,2021-07-08T17:25:00,AQUA_M-T,TURVO,PARANÁ,Brasil,POINT (-24.856 -51.372)
focos_ams_ontem_hoje_ref.ed0231f1-7288-3a89-b53d-702632073d62,-56.438,-22.165,2021-07-08T17:25:00,AQUA_M-T,Bella Vista,Amambay,Paraguay,POINT (-22.165 -56.438)
focos_ams_ontem_hoje_ref.5303fd8b-9fd5-3b49-8aa3-33ab6459e615,-61.139,-26.014,2021-07-08T17:25:00,AQUA_M-T,General Güemes,Chaco,Argentina,POINT (-26.014 -61.139)
focos_ams_ontem_hoje_ref.64632bad-1f2f-3303-b5a4-2514b4b6eb4d,-61.133,-26.02,2021-07-08T17:25:00,AQUA_M-T,General Güemes,Chaco,Argentina,POINT (-26.02 -61.133)
focos_ams_ontem_hoje_ref.d99eda70-5d67-396e-a089-d7e0325c1eab,-60.106,-26.082,2021-07-08T17:25:00,AQUA_M-T,Libertador General San Martín,Chaco,Argentina,POINT (-26.082 -60.106)
focos_ams_ontem_hoje_ref.792896ab-7ab9-3799-b0fd-b1c632fb43f8,-55.971,-18.029,2021-07-08T17:25:00,AQUA_M-T,CORUMBÁ,MATO GROSSO DO SUL,Brasil,POINT (-18.029 -55.971)
focos_ams_ontem_hoje_ref.07622eac-5480-3eec-962d-05da8830b4a8,-57.371,-18.775,2021-07-08T17:25:00,AQUA_M-T,CORUMBÁ,MATO GROSSO DO SUL,Brasil,POINT (-18.775 -57.371)
focos_ams_ontem_hoje_ref.41f99cfc-a534-3ec4-8081-ecabb272f7f6,-57.316,-18.778,2021-07-08T17:25:00,AQUA_M-T,CORUMBÁ,MATO GROSSO DO SUL,Brasil,POINT (-18.778 -57.316)
focos_ams_ontem_hoje_ref.bdd682ba-4448-38f0-933f-e97e0b53ed36,-57.327,-18.779,2021-07-08T17:25:00,AQUA_M-T,CORUMBÁ,MATO GROSSO DO SUL,Brasil,POINT (-18.779 -57.327)
focos_ams_ontem_hoje_ref.307d55ee-9e79-3bb0-a073-14e6f3261173,-57.338,-18.781,2021-07-08T17:25:00,AQUA_M-T,CORUMBÁ,MATO GROSSO DO SUL,Brasil,POINT (-18.781 -57.338)
focos_ams_ontem_hoje_ref.75225407-eb86-326e-b10a-b30253cb5280,-57.359,-18.784,2021-07-08T17:25:00,AQUA_M-T,CORUMBÁ,MATO GROSSO DO SUL,Brasil,POINT (-18.784 -57.359)
focos_ams_ontem_hoje_ref.6a3a6fd5-1a4b-3b1d-9cd0-244c774d8111,-57.244,-18.827,2021-07-08T17:25:00,AQUA_M-T,CORUMBÁ,MATO GROSSO DO SUL,Brasil,POINT (-18.827 -57.244)
focos_ams_ontem_hoje_ref.b6f80c02-b931-3252-af44-dd7cf262b74b,-57.329,-18.838,2021-07-08T17:25:00,AQUA_M-T,CORUMBÁ,MATO GROSSO DO SUL,Brasil,POINT (-18.838 -57.329)
focos_ams_ontem_hoje_ref.2603ff2e-0e97-3ab0-9715-d97457d03256,-57.276,-18.831,2021-07-08T17:25:00,AQUA_M-T,CORUMBÁ,MATO GROSSO DO SUL,Brasil,POINT (-18.831 -57.276)
focos_ams_ontem_hoje_ref.1ba46a81-3929-3e7c-9e5f-85f863cba53e,-57.243,-18.836,2021-07-08T17:25:00,AQUA_M-T,CORUMBÁ,MATO GROSSO DO SUL,Brasil,POINT (-18.836 -57.243)
focos_ams_ontem_hoje_ref.245b9124-6c0c-368c-8bd5-a3be9b9e0cf4,-57.34,-18.84,2021-07-08T17:25:00,AQUA_M-T,CORUMBÁ,MATO GROSSO DO SUL,Brasil,POINT (-18.84 -57.34)
focos_ams_ontem_hoje_ref.09d404fd-2364-39a5-86f8-d6b4bae142a8,-57.241,-18.846,2021-07-08T17:25:00,AQUA_M-T,CORUMBÁ,MATO GROSSO DO SUL,Brasil,POINT (-18.846 -57.241)
focos_ams_ontem_hoje_ref.aee8012b-0638-326e-9756-ce54b13e3cf6,-51.793,-10.25,2021-07-08T17:25:00,AQUA_M-T,CONFRESA,MATO GROSSO,Brasil,POINT (-10.25 -51.793)
focos_ams_ontem_hoje_ref.f3c7337a-d644-3585-9df5-2bd3350eb093,-56.905,-10.384,2021-07-08T17:25:00,AQUA_M-T,JUARA,MATO GROSSO,Brasil,POINT (-10.384 -56.905)
focos_ams_ontem_hoje_ref.6f7db30d-89d2-3a44-826f-6ab4efddc41b,-57.555,-10.338,2021-07-08T17:25:00,AQUA_M-T,JUARA,MATO GROSSO,Brasil,POINT (-10.338 -57.555)
focos_ams_ontem_hoje_ref.d7e64f6e-87df-31bf-9d0b-420921fd8479,-57.564,-10.339,2021-07-08T17:25:00,AQUA_M-T,JUARA,MATO GROSSO,Brasil,POINT (-10.339 -57.564)
focos_ams_ontem_hoje_ref.897052c2-a5f9-3d37-b2a0-14ab87826716,-50.255,-10.469,2021-07-08T17:25:00,AQUA_M-T,PIUM,TOCANTINS,Brasil,POINT (-10.469 -50.255)
focos_ams_ontem_hoje_ref.d080dcbc-988a-34a7-ac99-b8a116923b89,-55.698,-10.632,2021-07-08T17:25:00,AQUA_M-T,NOVA CANAÃ DO NORTE,MATO GROSSO,Brasil,POINT (-10.632 -55.698)
focos_ams_ontem_hoje_ref.aa1c94ea-e94f-30b9-bf05-c120f99a811d,-47.293,-10.636,2021-07-08T17:25:00,AQUA_M-T,PONTE ALTA DO TOCANTINS,TOCANTINS,Brasil,POINT (-10.636 -47.293)
focos_ams_ontem_hoje_ref.312bcb59-bde4-304f-93b8-f3ee744a0dda,-57.958,-10.716,2021-07-08T17:25:00,AQUA_M-T,JUARA,MATO GROSSO,Brasil,POINT (-10.716 -57.958)
focos_ams_ontem_hoje_ref.fc64c4b3-98fc-34d3-9eac-b998ea755af8,-47.287,-10.641,2021-07-08T17:25:00,AQUA_M-T,PONTE ALTA DO TOCANTINS,TOCANTINS,Brasil,POINT (-10.641 -47.287)
focos_ams_ontem_hoje_ref.7dd5c15b-5db9-3823-a923-56c8d77c2668,-57.968,-10.717,2021-07-08T17:25:00,AQUA_M-T,JUARA,MATO GROSSO,Brasil,POINT (-10.717 -57.968)
focos_ams_ontem_hoje_ref.4eb624a5-0ee3-3087-9681-d538442e031a,-57.957,-10.725,2021-07-08T17:25:00,AQUA_M-T,JUARA,MATO GROSSO,Brasil,POINT (-10.725 -57.957)
focos_ams_ontem_hoje_ref.75c61481-d703-31eb-adb7-c5153f01be9d,-57.966,-10.727,2021-07-08T17:25:00,AQUA_M-T,JUARA,MATO GROSSO,Brasil,POINT (-10.727 -57.966)
focos_ams_ontem_hoje_ref.fe5a9dc2-d7cd-32ce-9486-d45ec348223a,-51.809,-10.735,2021-07-08T17:25:00,AQUA_M-T,PORTO ALEGRE DO NORTE,MATO GROSSO,Brasil,POINT (-10.735 -51.809)
focos_ams_ontem_hoje_ref.dbef5c3b-3cca-38e1-88ba-abf11a33f77e,-58.556,-10.746,2021-07-08T17:25:00,AQUA_M-T,CASTANHEIRA,MATO GROSSO,Brasil,POINT (-10.746 -58.556)
focos_ams_ontem_hoje_ref.cebd88f3-9f77-35dc-afa9-cb1607337e73,-57.214,-10.823,2021-07-08T17:25:00,AQUA_M-T,JUARA,MATO GROSSO,Brasil,POINT (-10.823 -57.214)
focos_ams_ontem_hoje_ref.45476493-26b0-32a2-a688-e6f0cc869251,-48.614,-14.571,2021-07-08T17:25:00,AQUA_M-T,NIQUELÂNDIA,GOIÁS,Brasil,POINT (-14.571 -48.614)
focos_ams_ontem_hoje_ref.346c7d86-eab9-367f-8001-fa7cb72e162c,-49.221,-14.851,2021-07-08T17:25:00,AQUA_M-T,SÃO LUIZ DO NORTE,GOIÁS,Brasil,POINT (-14.851 -49.221)
focos_ams_ontem_hoje_ref.533481e8-354e-338b-b364-1734d1a58c28,-49.226,-14.854,2021-07-08T17:25:00,AQUA_M-T,HIDROLINA,GOIÁS,Brasil,POINT (-14.854 -49.226)
focos_ams_ontem_hoje_ref.f57c0be4-b53f-33c1-b336-c637884709bb,-49.241,-14.854,2021-07-08T17:25:00,AQUA_M-T,HIDROLINA,GOIÁS,Brasil,POINT (-14.854 -49.241)
focos_ams_ontem_hoje_ref.6cdc1752-a6b4-3c36-ab17-bcf9a1de8825,-49.246,-14.858,2021-07-08T17:25:00,AQUA_M-T,SÃO LUIZ DO NORTE,GOIÁS,Brasil,POINT (-14.858 -49.246)
focos_ams_ontem_hoje_ref.2c0195c0-c535-3d37-99a0-a2ba6fe3abcb,-53.318,-18.845,2021-07-08T17:25:00,AQUA_M-T,COSTA RICA,MATO GROSSO DO SUL,Brasil,POINT (-18.845 -53.318)
focos_ams_ontem_hoje_ref.fb5bf2c2-a03f-3d99-9234-db2cb559e0ec,-54.595,-20.803,2021-07-08T17:25:00,AQUA_M-T,CAMPO GRANDE,MATO GROSSO DO SUL,Brasil,POINT (-20.803 -54.595)
focos_ams_ontem_hoje_ref.6a85a7b8-9bb3-3572-903f-df818c3981be,-53.19,-21.185,2021-07-08T17:25:00,AQUA_M-T,RIBAS DO RIO PARDO,MATO GROSSO DO SUL,Brasil,POINT (-21.185 -53.19)
focos_ams_ontem_hoje_ref.419483f6-eb9c-3651-9cb7-660ade60ce68,-53.483,-21.661,2021-07-08T17:25:00,AQUA_M-T,NOVA ANDRADINA,MATO GROSSO DO SUL,Brasil,POINT (-21.661 -53.483)
focos_ams_ontem_hoje_ref.59990ac3-8695-3a88-8f9b-5e3f6934acb6,-54.027,-19.257,2021-07-08T17:25:00,AQUA_M-T,CAMAPUÃ,MATO GROSSO DO SUL,Brasil,POINT (-19.257 -54.027)
focos_ams_ontem_hoje_ref.7e18065e-ffe7-3e20-9d96-b69625a3f3ca,-53.328,-18.846,2021-07-08T17:25:00,AQUA_M-T,COSTA RICA,MATO GROSSO DO SUL,Brasil,POINT (-18.846 -53.328)
focos_ams_ontem_hoje_ref.0f061e73-e087-3f2a-ba40-efad98a208da,-53.493,-21.662,2021-07-08T17:25:00,AQUA_M-T,NOVA ANDRADINA,MATO GROSSO DO SUL,Brasil,POINT (-21.662 -53.493)
focos_ams_ontem_hoje_ref.16ea7266-4a0a-39c4-a66d-f908846b65ed,-56.591,-24.044,2021-07-08T17:25:00,AQUA_M-T,Lima,San Pedro,Paraguay,POINT (-24.044 -56.591)
focos_ams_ontem_hoje_ref.0791b118-8816-335c-b5b2-054de25fdd12,-57.398,-24.073,2021-07-08T17:25:00,AQUA_M-T,Villa Hayes,Presidente Hayes,Paraguay,POINT (-24.073 -57.398)
focos_ams_ontem_hoje_ref.a62990fe-e033-3bf2-945c-5529948a8a3a,-57.411,-24.075,2021-07-08T17:25:00,AQUA_M-T,Villa Hayes,Presidente Hayes,Paraguay,POINT (-24.075 -57.411)
focos_ams_ontem_hoje_ref.58aeab2d-e395-3038-891f-4adecc1fa938,-56.74,-24.083,2021-07-08T17:25:00,AQUA_M-T,Choré,San Pedro,Paraguay,POINT (-24.083 -56.74)
focos_ams_ontem_hoje_ref.e3489aa9-18d8-3ddf-9d93-ef59d066dba9,-57.404,-24.083,2021-07-08T17:25:00,AQUA_M-T,Villa Hayes,Presidente Hayes,Paraguay,POINT (-24.083 -57.404)
focos_ams_ontem_hoje_ref.3554a96a-4bf4-32af-8759-05f6b4f47c7f,-57.397,-24.084,2021-07-08T17:25:00,AQUA_M-T,Villa Hayes,Presidente Hayes,Paraguay,POINT (-24.084 -57.397)
focos_ams_ontem_hoje_ref.5d815ee7-661e-3d03-b76d-f3c93facf7fa,-57.41,-24.085,2021-07-08T17:25:00,AQUA_M-T,Villa Hayes,Presidente Hayes,Paraguay,POINT (-24.085 -57.41)
focos_ams_ontem_hoje_ref.6d3a3af2-6477-3866-941d-be72a7d98422,-56.352,-24.148,2021-07-08T17:25:00,AQUA_M-T,Choré,San Pedro,Paraguay,POINT (-24.148 -56.352)
focos_ams_ontem_hoje_ref.bf18a033-b4a2-3750-8855-9005928d8170,-56.355,-24.096,2021-07-08T17:25:00,AQUA_M-T,General Isidoro Resquín,San Pedro,Paraguay,POINT (-24.096 -56.355)
focos_ams_ontem_hoje_ref.70898e32-bc45-3e3c-b913-4b15b0d28db0,-56.307,-24.142,2021-07-08T17:25:00,AQUA_M-T,San Estanislao,San Pedro,Paraguay,POINT (-24.142 -56.307)
focos_ams_ontem_hoje_ref.43d966ac-fb26-35fa-9e6e-ca437997f2a0,-55.719,-24.241,2021-07-08T17:25:00,AQUA_M-T,Villa San Isidro Curuguaty,Canindeyú,Paraguay,POINT (-24.241 -55.719)
focos_ams_ontem_hoje_ref.39e488d0-c1d1-3496-a010-504c841b6bf4,-57.204,-19.015,2021-07-08T17:25:00,AQUA_M-T,CORUMBÁ,MATO GROSSO DO SUL,Brasil,POINT (-19.015 -57.204)
focos_ams_ontem_hoje_ref.9b4e5ff2-d0c8-3822-a520-991c9cbafff3,-57.175,-18.991,2021-07-08T17:25:00,AQUA_M-T,CORUMBÁ,MATO GROSSO DO SUL,Brasil,POINT (-18.991 -57.175)
focos_ams_ontem_hoje_ref.2a882a4d-8a78-363b-a0ab-8ee6c8a08570,-57.193,-19.013,2021-07-08T17:25:00,AQUA_M-T,CORUMBÁ,MATO GROSSO DO SUL,Brasil,POINT (-19.013 -57.193)
focos_ams_ontem_hoje_ref.4e8dff37-fb79-3b0e-898d-2016413a3421,-57.171,-19.02,2021-07-08T17:25:00,AQUA_M-T,CORUMBÁ,MATO GROSSO DO SUL,Brasil,POINT (-19.02 -57.171)
focos_ams_ontem_hoje_ref.faeb1196-b76b-33a2-8c3f-92ea9fe15599,-57.181,-19.021,2021-07-08T17:25:00,AQUA_M-T,CORUMBÁ,MATO GROSSO DO SUL,Brasil,POINT (-19.021 -57.181)
focos_ams_ontem_hoje_ref.df54f171-eacc-3bd6-ba2c-fd8f537f41bf,-57.165,-19.023,2021-07-08T17:25:00,AQUA_M-T,CORUMBÁ,MATO GROSSO DO SUL,Brasil,POINT (-19.023 -57.165)
focos_ams_ontem_hoje_ref.56596b68-635c-398b-99da-d50b542a5c48,-57.192,-19.023,2021-07-08T17:25:00,AQUA_M-T,CORUMBÁ,MATO GROSSO DO SUL,Brasil,POINT (-19.023 -57.192)
focos_ams_ontem_hoje_ref.d0935984-2878-399f-808a-7f1afcb08e8c,-57.176,-19.024,2021-07-08T17:25:00,AQUA_M-T,CORUMBÁ,MATO GROSSO DO SUL,Brasil,POINT (-19.024 -57.176)
focos_ams_ontem_hoje_ref.6416c6c7-870c-3a0d-901f-a1839b30d2af,-57.174,-19.034,2021-07-08T17:25:00,AQUA_M-T,CORUMBÁ,MATO GROSSO DO SUL,Brasil,POINT (-19.034 -57.174)
focos_ams_ontem_hoje_ref.25ba1020-900b-36c9-8360-92cc36d98a35,-57.197,-19.027,2021-07-08T17:25:00,AQUA_M-T,CORUMBÁ,MATO GROSSO DO SUL,Brasil,POINT (-19.027 -57.197)
focos_ams_ontem_hoje_ref.da68c452-e455-3fa8-aa05-5fe9e742b4ad,-57.173,-19.043,2021-07-08T17:25:00,AQUA_M-T,CORUMBÁ,MATO GROSSO DO SUL,Brasil,POINT (-19.043 -57.173)
focos_ams_ontem_hoje_ref.5c396eef-d341-3632-93f9-a64465239a43,-57.194,-19.046,2021-07-08T17:25:00,AQUA_M-T,CORUMBÁ,MATO GROSSO DO SUL,Brasil,POINT (-19.046 -57.194)
focos_ams_ontem_hoje_ref.897d40e2-1811-3b1e-83a8-580c26ead009,-57.205,-19.047,2021-07-08T17:25:00,AQUA_M-T,CORUMBÁ,MATO GROSSO DO SUL,Brasil,POINT (-19.047 -57.205)
focos_ams_ontem_hoje_ref.cce0d7e6-cf89-3d01-8f4d-92ccf71b99df,-57.193,-19.056,2021-07-08T17:25:00,AQUA_M-T,CORUMBÁ,MATO GROSSO DO SUL,Brasil,POINT (-19.056 -57.193)
focos_ams_ontem_hoje_ref.9affed4b-caaa-3e62-a3a7-83cb566c6b33,-57.203,-19.057,2021-07-08T17:25:00,AQUA_M-T,CORUMBÁ,MATO GROSSO DO SUL,Brasil,POINT (-19.057 -57.203)
focos_ams_ontem_hoje_ref.f5afb77f-f920-3ef3-989c-a75cf8045ae9,-57.214,-19.058,2021-07-08T17:25:00,AQUA_M-T,CORUMBÁ,MATO GROSSO DO SUL,Brasil,POINT (-19.058 -57.214)
focos_ams_ontem_hoje_ref.e7bbec14-ed19-3967-87cf-02c34c62a1fa,-65.321,-12.875,2021-07-08T17:25:00,AQUA_M-T,Yacuma,El Beni,Bolivia,POINT (-12.875 -65.321)
focos_ams_ontem_hoje_ref.09739fd1-da70-38aa-80b8-a8126b0372af,-66.388,-12.96,2021-07-08T17:25:00,AQUA_M-T,Yacuma,El Beni,Bolivia,POINT (-12.96 -66.388)
focos_ams_ontem_hoje_ref.a019165a-6612-3380-8d2a-189e63ab14c4,-64.61,-12.973,2021-07-08T17:25:00,AQUA_M-T,Mamoré,El Beni,Bolivia,POINT (-12.973 -64.61)
focos_ams_ontem_hoje_ref.ad7c4bb0-b8d8-3a8e-9e73-d259ab40aaba,-66.653,-11.908,2021-07-08T17:25:00,AQUA_M-T,Vaca Díez,El Beni,Bolivia,POINT (-11.908 -66.653)
focos_ams_ontem_hoje_ref.75f0b273-b635-3368-91d5-c521d1658d4c,-64.615,-12.974,2021-07-08T17:25:00,AQUA_M-T,Mamoré,El Beni,Bolivia,POINT (-12.974 -64.615)
focos_ams_ontem_hoje_ref.227a7c7c-ba56-32ee-9c8a-627d77280598,-64.638,-12.976,2021-07-08T17:25:00,AQUA_M-T,Mamoré,El Beni,Bolivia,POINT (-12.976 -64.638)
focos_ams_ontem_hoje_ref.7f281627-afd0-3898-9587-f244ca756f93,-63.996,-13.279,2021-07-08T17:25:00,AQUA_M-T,Vaca Díez,El Beni,Bolivia,POINT (-13.279 -63.996)
focos_ams_ontem_hoje_ref.23cd3b1f-9883-3303-a83e-06924b85ab87,-63.991,-13.282,2021-07-08T17:25:00,AQUA_M-T,Vaca Díez,El Beni,Bolivia,POINT (-13.282 -63.991)
focos_ams_ontem_hoje_ref.b1df92b5-ca6e-3cfc-abc7-d82733d5bbd4,-63.775,-13.525,2021-07-08T17:25:00,AQUA_M-T,Vaca Díez,El Beni,Bolivia,POINT (-13.525 -63.775)
focos_ams_ontem_hoje_ref.36fdf274-dcef-3960-ad08-ddbb8b3a5f2b,-63.956,-13.474,2021-07-08T17:25:00,AQUA_M-T,Vaca Díez,El Beni,Bolivia,POINT (-13.474 -63.956)
focos_ams_ontem_hoje_ref.ab692881-fdc0-3c0e-95cf-66b56c48356b,-60.588,-24.771,2021-07-08T17:25:00,AQUA_M-T,Patiño,Formosa,Argentina,POINT (-24.771 -60.588)
focos_ams_ontem_hoje_ref.634b0db2-7a70-30e2-ac58-7c287fb38a8c,-57.34,-24.593,2021-07-08T17:25:00,AQUA_M-T,Villa Hayes,Presidente Hayes,Paraguay,POINT (-24.593 -57.34)
focos_ams_ontem_hoje_ref.24626993-62fb-39b4-af7e-4e6bef618190,-55.968,-24.595,2021-07-08T17:25:00,AQUA_M-T,San Estanislao,San Pedro,Paraguay,POINT (-24.595 -55.968)
focos_ams_ontem_hoje_ref.3a9b4dba-f457-303a-b195-c2335f74588f,-55.979,-24.597,2021-07-08T17:25:00,AQUA_M-T,San Estanislao,San Pedro,Paraguay,POINT (-24.597 -55.979)
focos_ams_ontem_hoje_ref.f6f8af7a-9b4b-353b-8a72-b388330116c8,-55.885,-24.623,2021-07-08T17:25:00,AQUA_M-T,Villa San Isidro Curuguaty,Canindeyú,Paraguay,POINT (-24.623 -55.885)
focos_ams_ontem_hoje_ref.0c9a95cc-d89f-3576-a3e8-452cf5cc3a95,-60.071,-24.603,2021-07-08T17:25:00,AQUA_M-T,Patiño,Formosa,Argentina,POINT (-24.603 -60.071)
focos_ams_ontem_hoje_ref.de32ea5d-175b-3404-8f91-7ddaa16a3277,-55.878,-24.627,2021-07-08T17:25:00,AQUA_M-T,Villa San Isidro Curuguaty,Canindeyú,Paraguay,POINT (-24.627 -55.878)
focos_ams_ontem_hoje_ref.f2c58030-e580-3d37-a429-12b320f1845d,-52.352,-23.931,2021-07-08T17:25:00,AQUA_M-T,PEABIRU,PARANÁ,Brasil,POINT (-23.931 -52.352)
focos_ams_ontem_hoje_ref.5b5d12e5-84a2-37c7-823e-d90be606061c,-63.73,-13.639,2021-07-08T17:25:00,AQUA_M-T,Vaca Díez,El Beni,Bolivia,POINT (-13.639 -63.73)
focos_ams_ontem_hoje_ref.813cc05b-a1e5-371a-9aa6-2224585b98c1,-63.627,-13.646,2021-07-08T17:25:00,AQUA_M-T,Vaca Díez,El Beni,Bolivia,POINT (-13.646 -63.627)
focos_ams_ontem_hoje_ref.414f8fcf-a150-3a7b-ad45-a11bd533fa70,-63.679,-13.758,2021-07-08T17:25:00,AQUA_M-T,Vaca Díez,El Beni,Bolivia,POINT (-13.758 -63.679)
focos_ams_ontem_hoje_ref.7a6467bf-3449-3b71-b500-b562055d45ae,-63.726,-13.63,2021-07-08T17:25:00,AQUA_M-T,Vaca Díez,El Beni,Bolivia,POINT (-13.63 -63.726)
focos_ams_ontem_hoje_ref.c7fbd9cd-7cdd-31cf-9be0-294a66bbe2c1,-63.63,-13.766,2021-07-08T17:25:00,AQUA_M-T,Vaca Díez,El Beni,Bolivia,POINT (-13.766 -63.63)
focos_ams_ontem_hoje_ref.6e284192-59b9-3ffc-b485-81ccffb2a230,-63.654,-13.769,2021-07-08T17:25:00,AQUA_M-T,Vaca Díez,El Beni,Bolivia,POINT (-13.769 -63.654)
focos_ams_ontem_hoje_ref.cdeacf1e-e0f7-30bd-9a53-ed557bb8af72,-63.624,-13.771,2021-07-08T17:25:00,AQUA_M-T,Vaca Díez,El Beni,Bolivia,POINT (-13.771 -63.624)
focos_ams_ontem_hoje_ref.901c1b09-517f-38b8-b4f9-ef5093b5e6f2,-58.648,-22.22,2021-07-08T17:25:00,AQUA_M-T,Puerto Pinasco,Presidente Hayes,Paraguay,POINT (-22.22 -58.648)
focos_ams_ontem_hoje_ref.8c3b5af2-7ff3-324c-b443-c5be9f5c8689,-58.118,-22.223,2021-07-08T17:25:00,AQUA_M-T,La Victoria,Alto Paraguay,Paraguay,POINT (-22.223 -58.118)
focos_ams_ontem_hoje_ref.30c5d9de-2a41-3baa-822d-a9232c98de9f,-58.131,-22.224,2021-07-08T17:25:00,AQUA_M-T,La Victoria,Alto Paraguay,Paraguay,POINT (-22.224 -58.131)
focos_ams_ontem_hoje_ref.bd13447c-4b46-36dd-abba-d4240e4769c3,-57.882,-22.253,2021-07-08T17:25:00,AQUA_M-T,San Lázaro,Concepción,Paraguay,POINT (-22.253 -57.882)
focos_ams_ontem_hoje_ref.69f42f1d-1cca-305f-b494-f3391d453357,-58.116,-22.233,2021-07-08T17:25:00,AQUA_M-T,La Victoria,Alto Paraguay,Paraguay,POINT (-22.233 -58.116)
focos_ams_ontem_hoje_ref.07429907-f3ef-38be-a17f-95d347076071,-57.896,-22.255,2021-07-08T17:25:00,AQUA_M-T,San Lázaro,Concepción,Paraguay,POINT (-22.255 -57.896)
focos_ams_ontem_hoje_ref.10f0124a-cd55-3082-8ef4-c1ba16a1ef7d,-56.319,-22.259,2021-07-08T17:25:00,AQUA_M-T,Bella Vista,Amambay,Paraguay,POINT (-22.259 -56.319)
focos_ams_ontem_hoje_ref.ba228e4c-60bd-3284-a988-a6b4a4e34bdd,-56.33,-22.261,2021-07-08T17:25:00,AQUA_M-T,Bella Vista,Amambay,Paraguay,POINT (-22.261 -56.33)
focos_ams_ontem_hoje_ref.f26d15af-b7ef-315b-8d1d-deba28875293,-64.877,-14.798,2021-07-08T17:25:00,AQUA_M-T,Cercado,El Beni,Bolivia,POINT (-14.798 -64.877)
focos_ams_ontem_hoje_ref.d429174e-de31-3c9a-80ae-c5455859a335,-63.648,-13.774,2021-07-08T17:25:00,AQUA_M-T,Vaca Díez,El Beni,Bolivia,POINT (-13.774 -63.648)
focos_ams_ontem_hoje_ref.f2b8f36f-e774-35b3-ba63-24fb94951818,-60.441,-15.304,2021-07-08T17:25:00,AQUA_M-T,José Miguel de Velasco,Santa Cruz,Bolivia,POINT (-15.304 -60.441)
focos_ams_ontem_hoje_ref.64817908-3350-3d9c-ae65-e65457124d8b,-60.456,-15.305,2021-07-08T17:25:00,AQUA_M-T,José Miguel de Velasco,Santa Cruz,Bolivia,POINT (-15.305 -60.456)
focos_ams_ontem_hoje_ref.6323fa47-45f2-30a1-8961-a04d6b01ca8e,-63.285,-15.618,2021-07-08T17:25:00,AQUA_M-T,Ñuflo de Chávez,Santa Cruz,Bolivia,POINT (-15.618 -63.285)
focos_ams_ontem_hoje_ref.6fdce17b-1861-3bd7-b55b-77bea00b4305,-63.085,-15.777,2021-07-08T17:25:00,AQUA_M-T,Marbán,El Beni,Bolivia,POINT (-15.777 -63.085)
focos_ams_ontem_hoje_ref.9d9bb3dc-eae5-35be-a735-018d435d0d3c,-60.682,-15.858,2021-07-08T17:25:00,AQUA_M-T,José Miguel de Velasco,Santa Cruz,Bolivia,POINT (-15.858 -60.682)
focos_ams_ontem_hoje_ref.60bdc623-2dad-38c2-9c3b-c65768bb038d,-61.255,-16.141,2021-07-08T17:25:00,AQUA_M-T,José Miguel de Velasco,Santa Cruz,Bolivia,POINT (-16.141 -61.255)
focos_ams_ontem_hoje_ref.b633e0a3-e56b-3f88-a2cf-30fcb6cd90c8,-61.244,-16.145,2021-07-08T17:25:00,AQUA_M-T,José Miguel de Velasco,Santa Cruz,Bolivia,POINT (-16.145 -61.244)
focos_ams_ontem_hoje_ref.e5b32584-270f-3f07-a2d7-4ede6be03f35,-60.769,-16.143,2021-07-08T17:25:00,AQUA_M-T,José Miguel de Velasco,Santa Cruz,Bolivia,POINT (-16.143 -60.769)
focos_ams_ontem_hoje_ref.aee95808-4d6b-3d96-bd68-b3fa73825b8e,-60.784,-16.145,2021-07-08T17:25:00,AQUA_M-T,José Miguel de Velasco,Santa Cruz,Bolivia,POINT (-16.145 -60.784)
focos_ams_ontem_hoje_ref.b850cf4f-8a58-3985-af60-698dcdf094fc,-60.703,-16.159,2021-07-08T17:25:00,AQUA_M-T,José Miguel de Velasco,Santa Cruz,Bolivia,POINT (-16.159 -60.703)
focos_ams_ontem_hoje_ref.0339e6eb-9300-3cc3-b7a0-febdb60ad4d7,-60.701,-16.17,2021-07-08T17:25:00,AQUA_M-T,José Miguel de Velasco,Santa Cruz,Bolivia,POINT (-16.17 -60.701)
focos_ams_ontem_hoje_ref.1daa0173-b523-353d-958f-c555a9999f56,-63.084,-16.293,2021-07-08T17:25:00,AQUA_M-T,Ñuflo de Chávez,Santa Cruz,Bolivia,POINT (-16.293 -63.084)
focos_ams_ontem_hoje_ref.f0c443a6-4ea4-3e34-a9bd-e23ad77dead1,-61.958,-16.31,2021-07-08T17:25:00,AQUA_M-T,Ñuflo de Chávez,Santa Cruz,Bolivia,POINT (-16.31 -61.958)
focos_ams_ontem_hoje_ref.dd27dc71-2398-3887-9aef-aa54f77c5d67,-61.972,-16.312,2021-07-08T17:25:00,AQUA_M-T,Ñuflo de Chávez,Santa Cruz,Bolivia,POINT (-16.312 -61.972)
focos_ams_ontem_hoje_ref.bfdaca49-6ead-33f6-8eb9-afc53a7bf9bf,-60.214,-16.36,2021-07-08T17:25:00,AQUA_M-T,José Miguel de Velasco,Santa Cruz,Bolivia,POINT (-16.36 -60.214)
focos_ams_ontem_hoje_ref.ffc9aa31-2bb0-3adc-89e8-aea1c87f3558,-61.977,-16.312,2021-07-08T17:25:00,AQUA_M-T,Ñuflo de Chávez,Santa Cruz,Bolivia,POINT (-16.312 -61.977)
focos_ams_ontem_hoje_ref.0ebf0fb5-4d07-3eab-bb45-66cdb23042da,-61.158,-16.487,2021-07-08T17:25:00,AQUA_M-T,José Miguel de Velasco,Santa Cruz,Bolivia,POINT (-16.487 -61.158)
focos_ams_ontem_hoje_ref.6f0f5b97-6df7-3960-ba07-93615aaff18b,-58.481,-16.943,2021-07-08T17:25:00,AQUA_M-T,José Miguel de Velasco,Santa Cruz,Bolivia,POINT (-16.943 -58.481)
focos_ams_ontem_hoje_ref.5aab41cb-7f04-33c8-b612-29656b22bba6,-58.468,-16.952,2021-07-08T17:25:00,AQUA_M-T,José Miguel de Velasco,Santa Cruz,Bolivia,POINT (-16.952 -58.468)
focos_ams_ontem_hoje_ref.24393afe-1053-3a63-9016-27428c6a550b,-58.48,-16.953,2021-07-08T17:25:00,AQUA_M-T,José Miguel de Velasco,Santa Cruz,Bolivia,POINT (-16.953 -58.48)
focos_ams_ontem_hoje_ref.716ab44b-01ad-3230-b93f-7da3d14668bf,-58.467,-16.962,2021-07-08T17:25:00,AQUA_M-T,José Miguel de Velasco,Santa Cruz,Bolivia,POINT (-16.962 -58.467)
focos_ams_ontem_hoje_ref.7014d1e7-2fd0-38eb-ae04-d07c0ba0c716,-58.465,-16.972,2021-07-08T17:25:00,AQUA_M-T,José Miguel de Velasco,Santa Cruz,Bolivia,POINT (-16.972 -58.465)
focos_ams_ontem_hoje_ref.c797edf7-0720-3219-a26a-9a17f1d31ad2,-58.464,-16.982,2021-07-08T17:25:00,AQUA_M-T,José Miguel de Velasco,Santa Cruz,Bolivia,POINT (-16.982 -58.464)
focos_ams_ontem_hoje_ref.238a9da9-2efb-304a-bfb9-b61a8cd3db9c,-58.457,-16.991,2021-07-08T17:25:00,AQUA_M-T,José Miguel de Velasco,Santa Cruz,Bolivia,POINT (-16.991 -58.457)
focos_ams_ontem_hoje_ref.a21007d6-f6ce-389c-8142-453f3581fbc2,-58.445,-16.989,2021-07-08T17:25:00,AQUA_M-T,José Miguel de Velasco,Santa Cruz,Bolivia,POINT (-16.989 -58.445)
focos_ams_ontem_hoje_ref.3519c931-23b9-33f6-8644-65d411b212cf,-58.451,-16.99,2021-07-08T17:25:00,AQUA_M-T,José Miguel de Velasco,Santa Cruz,Bolivia,POINT (-16.99 -58.451)
focos_ams_ontem_hoje_ref.a2634cee-7737-39d1-9b6a-10cb0b2375bf,-58.463,-16.992,2021-07-08T17:25:00,AQUA_M-T,José Miguel de Velasco,Santa Cruz,Bolivia,POINT (-16.992 -58.463)
focos_ams_ontem_hoje_ref.237ed438-2616-38f4-93f2-42463b8b8fc2,-58.468,-16.992,2021-07-08T17:25:00,AQUA_M-T,José Miguel de Velasco,Santa Cruz,Bolivia,POINT (-16.992 -58.468)
focos_ams_ontem_hoje_ref.b59ad71a-9e2d-371b-903d-b32193137360,-58.474,-16.993,2021-07-08T17:25:00,AQUA_M-T,José Miguel de Velasco,Santa Cruz,Bolivia,POINT (-16.993 -58.474)
focos_ams_ontem_hoje_ref.8712f709-82cf-3359-9b36-1ca439df8d61,-58.48,-16.994,2021-07-08T17:25:00,AQUA_M-T,José Miguel de Velasco,Santa Cruz,Bolivia,POINT (-16.994 -58.48)
focos_ams_ontem_hoje_ref.a786ec4b-c078-3671-b761-11a47bed807f,-61.851,-17.506,2021-07-08T17:25:00,AQUA_M-T,Chiquitos,Santa Cruz,Bolivia,POINT (-17.506 -61.851)
focos_ams_ontem_hoje_ref.2d47d1e2-8b39-35fa-8132-95a2207b14d3,-58.467,-17.002,2021-07-08T17:25:00,AQUA_M-T,José Miguel de Velasco,Santa Cruz,Bolivia,POINT (-17.002 -58.467)
focos_ams_ontem_hoje_ref.39cb7ffe-da53-3fea-9358-f6d326222470,-61.849,-17.519,2021-07-08T17:25:00,AQUA_M-T,Chiquitos,Santa Cruz,Bolivia,POINT (-17.519 -61.849)
focos_ams_ontem_hoje_ref.ea043091-9b72-3daf-b4e1-dbc2df55d39a,-61.87,-17.521,2021-07-08T17:25:00,AQUA_M-T,Chiquitos,Santa Cruz,Bolivia,POINT (-17.521 -61.87)
focos_ams_ontem_hoje_ref.0602dea3-114e-3adb-809c-a0790931bc81,-59.027,-18.325,2021-07-08T17:25:00,AQUA_M-T,Chiquitos,Santa Cruz,Bolivia,POINT (-18.325 -59.027)
focos_ams_ontem_hoje_ref.b3198a7d-2203-3d16-af44-fcb178e3f1b2,-58.242,-20.228,2021-07-08T17:25:00,AQUA_M-T,Fuerte Olimpo,Alto Paraguay,Paraguay,POINT (-20.228 -58.242)
focos_ams_ontem_hoje_ref.26833ed9-43d2-36df-b6fb-612d9b1923a6,-58.006,-20.747,2021-07-08T17:25:00,AQUA_M-T,Fuerte Olimpo,Alto Paraguay,Paraguay,POINT (-20.747 -58.006)
focos_ams_ontem_hoje_ref.dd4ff34e-21d2-37c0-8294-f7647cfd2899,-58.005,-20.757,2021-07-08T17:25:00,AQUA_M-T,Fuerte Olimpo,Alto Paraguay,Paraguay,POINT (-20.757 -58.005)
